"CODMUNRES","n_nasc_vivos","ANONASC","Cardiopatias","Membros","Neural","Fendas","Microcefalia","nome","latitude","longitude"
"430003",73,2014,0,0,0,0,0,"Aceguá",-31.8665,-54.1615
"430005",48,2014,0,0,0,0,0,"Água Santa",-28.1672,-52.031
"430010",162,2014,0,3,0,1,0,"Agudo",-29.6447,-53.2515
"430020",61,2014,0,1,0,0,0,"Ajuricaba",-28.2342,-53.7757
"430030",59,2014,0,0,0,0,0,"Alecrim",-27.6579,-54.7649
"430040",925,2014,1,1,0,1,0,"Alegrete",-29.7902,-55.7949
"430045",37,2014,0,0,0,0,0,"Alegria",-27.8345,-54.0557
"430047",22,2014,0,0,0,0,0,"Almirante Tamandaré do Sul",-28.1149,-52.9142
"430050",72,2014,0,0,0,0,0,"Alpestre",-27.2502,-53.0341
"430055",14,2014,0,0,0,0,0,"Alto Alegre",-28.7769,-52.9893
"430057",26,2014,0,0,0,0,0,"Alto Feliz",-29.3919,-51.3123
"430060",3419,2014,7,10,2,6,0,"Alvorada",-29.9914,-51.0809
"430063",61,2014,1,1,0,0,0,"Amaral Ferrador",-30.8756,-52.2509
"430064",73,2014,0,0,0,0,0,"Ametista do Sul",-27.3607,-53.183
"430066",11,2014,0,0,0,0,0,"André da Rocha",-28.6283,-51.5797
"430070",41,2014,0,0,0,0,0,"Anta Gorda",-28.9698,-52.0102
"430080",144,2014,0,0,0,0,0,"Antônio Prado",-28.8565,-51.2883
"430085",26,2014,0,0,0,0,0,"Arambaré",-30.9092,-51.5046
"430087",108,2014,0,1,0,0,0,"Araricá",-29.6168,-50.9291
"430090",54,2014,0,0,0,0,0,"Aratiba",-27.3978,-52.2975
"430100",273,2014,0,0,0,0,0,"Arroio do Meio",-29.4014,-51.9557
"430105",103,2014,0,1,0,0,0,"Arroio do Sal",-29.5439,-49.8895
"430107",16,2014,0,0,0,0,0,"Arroio do Padre",-31.4389,-52.4246
"430110",177,2014,0,0,0,0,0,"Arroio dos Ratos",-30.0875,-51.7275
"430120",139,2014,0,0,0,0,0,"Arroio do Tigre",-29.3348,-53.0966
"430130",201,2014,0,0,0,0,0,"Arroio Grande",-32.2327,-53.0862
"430140",110,2014,0,0,0,0,0,"Arvorezinha",-28.8737,-52.1781
"430150",62,2014,0,0,0,1,0,"Augusto Pestana",-28.5172,-53.9883
"430155",34,2014,0,0,0,0,0,"Áurea",-27.6936,-52.0505
"430160",1591,2014,2,1,1,2,0,"Bagé",-31.3297,-54.0999
"430163",138,2014,0,0,0,0,0,"Balneário Pinhal",-30.2419,-50.2337
"430165",64,2014,0,0,0,0,0,"Barão",-29.3725,-51.4949
"430170",67,2014,0,0,0,0,0,"Barão de Cotegipe",-27.6208,-52.3798
"430175",68,2014,0,1,0,0,0,"Barão do Triunfo",-30.3891,-51.7384
"430180",42,2014,0,0,0,0,0,"Barracão",-27.6739,-51.4585
"430185",37,2014,0,0,0,0,0,"Barra do Guarita",-27.1927,-53.7109
"430187",38,2014,0,0,0,0,0,"Barra do Quaraí",-30.2029,-57.5497
"430190",121,2014,0,1,0,0,0,"Barra do Ribeiro",-30.2939,-51.3014
"430192",10,2014,0,0,0,0,0,"Barra do Rio Azul",-27.4069,-52.4084
"430195",36,2014,0,0,0,0,0,"Barra Funda",-27.9205,-53.0391
"430200",109,2014,0,1,0,0,0,"Barros Cassal",-29.0947,-52.5836
"430205",37,2014,0,0,0,0,0,"Benjamin Constant do Sul",-27.5086,-52.5995
"430210",1614,2014,6,4,1,1,0,"Bento Gonçalves",-29.1662,-51.5165
"430215",24,2014,0,0,0,0,0,"Boa Vista das Missões",-27.6671,-53.3102
"430220",70,2014,0,0,0,0,0,"Boa Vista do Buricá",-27.6693,-54.1082
"430222",23,2014,0,0,0,0,0,"Boa Vista do Cadeado",-28.5791,-53.8108
"430223",26,2014,0,1,0,0,0,"Boa Vista do Incra",-28.8185,-53.391
"430225",26,2014,0,0,0,0,0,"Boa Vista do Sul",-29.3544,-51.6687
"430230",133,2014,0,0,0,0,0,"Bom Jesus",-28.6697,-50.4295
"430235",164,2014,0,0,0,0,0,"Bom Princípio",-29.4856,-51.3548
"430237",34,2014,0,0,0,0,0,"Bom Progresso",-27.5399,-53.8716
"430240",137,2014,1,0,0,0,0,"Bom Retiro do Sul",-29.6071,-51.9456
"430245",84,2014,0,0,0,0,0,"Boqueirão do Leão",-29.3046,-52.4284
"430250",50,2014,0,0,0,0,0,"Bossoroca",-28.7291,-54.9035
"430258",17,2014,0,0,0,0,0,"Bozano",-28.3659,-53.772
"430260",34,2014,0,0,0,0,0,"Braga",-27.6173,-53.7405
"430265",45,2014,0,0,0,0,0,"Brochier",-29.5501,-51.5945
"430270",313,2014,0,2,0,0,0,"Butiá",-30.1179,-51.9601
"430280",398,2014,0,2,0,0,0,"Caçapava do Sul",-30.5144,-53.4827
"430290",104,2014,0,0,0,0,0,"Cacequi",-29.8883,-54.822
"430300",975,2014,4,3,2,2,1,"Cachoeira do Sul",-30.033,-52.8928
"430310",2106,2014,6,7,1,2,0,"Cachoeirinha",-29.9472,-51.1016
"430320",67,2014,0,0,0,0,0,"Cacique Doble",-27.767,-51.6597
"430330",56,2014,0,0,0,0,0,"Caibaté",-28.2905,-54.6454
"430340",29,2014,0,0,0,0,0,"Caiçara",-27.2791,-53.4257
"430350",862,2014,1,2,2,0,0,"Camaquã",-30.8489,-51.8043
"430355",23,2014,0,0,0,0,0,"Camargo",-28.588,-52.2003
"430360",66,2014,0,0,0,0,0,"Cambará do Sul",-29.0474,-50.1465
"430367",24,2014,0,0,0,0,0,"Campestre da Serra",-28.7926,-51.0941
"430370",47,2014,0,0,0,0,0,"Campina das Missões",-27.9888,-54.8416
"430380",43,2014,0,0,0,0,0,"Campinas do Sul",-27.7174,-52.6248
"430390",845,2014,1,2,0,2,1,"Campo Bom",-29.6747,-51.0606
"430400",88,2014,0,0,0,0,0,"Campo Novo",-27.6792,-53.8052
"430410",32,2014,0,0,0,0,0,"Campos Borges",-28.8871,-53.0008
"430420",318,2014,1,0,0,0,0,"Candelária",-29.6684,-52.7895
"430430",59,2014,0,0,0,1,0,"Cândido Godói",-27.9515,-54.7517
"430435",133,2014,0,0,0,0,0,"Candiota",-31.5516,-53.6773
"430440",676,2014,0,1,0,0,0,"Canela",-29.356,-50.8119
"430450",574,2014,0,0,0,0,0,"Canguçu",-31.396,-52.6783
"430460",5328,2014,4,9,4,4,0,"Canoas",-29.9128,-51.1857
"430461",12,2014,0,0,0,0,0,"Canudos do Vale",-29.3271,-52.2374
"430462",23,2014,0,0,0,0,0,"Capão Bonito do Sul",-28.1254,-51.3961
"430463",795,2014,1,1,0,1,0,"Capão da Canoa",-29.7642,-50.0282
"430465",25,2014,0,0,0,0,0,"Capão do Cipó",-28.9312,-54.5558
"430466",380,2014,0,0,0,0,0,"Capão do Leão",-31.7565,-52.4889
"430467",48,2014,0,0,0,0,0,"Capivari do Sul",-30.1383,-50.5152
"430468",130,2014,0,0,0,0,0,"Capela de Santana",-29.6961,-51.328
"430469",32,2014,0,0,0,0,0,"Capitão",-29.2674,-51.9853
"430470",871,2014,0,1,1,0,0,"Carazinho",-28.2958,-52.7933
"430471",72,2014,0,1,0,0,0,"Caraá",-29.7869,-50.4316
"430480",319,2014,0,0,0,0,0,"Carlos Barbosa",-29.2969,-51.5028
"430485",8,2014,0,1,0,0,0,"Carlos Gomes",-27.7167,-51.9121
"430490",93,2014,0,0,0,0,0,"Casca",-28.5605,-51.9815
"430495",36,2014,0,0,0,0,0,"Caseiros",-28.2582,-51.6861
"430500",91,2014,0,0,0,0,0,"Catuípe",-28.2554,-54.0132
"430510",6421,2014,5,9,2,7,0,"Caxias do Sul",-29.1629,-51.1792
"430511",33,2014,0,0,0,0,0,"Centenário",-27.7615,-51.9984
"430512",61,2014,0,0,0,0,0,"Cerrito",-31.8419,-52.8004
"430513",39,2014,0,0,0,0,0,"Cerro Branco",-29.657,-52.9406
"430515",30,2014,0,0,0,0,0,"Cerro Grande",-27.6106,-53.1672
"430517",119,2014,0,0,1,0,0,"Cerro Grande do Sul",-30.5905,-51.7418
"430520",150,2014,0,0,0,0,0,"Cerro Largo",-28.1463,-54.7428
"430530",69,2014,0,1,0,0,0,"Chapada",-28.0559,-53.0665
"430535",432,2014,0,0,0,0,0,"Charqueadas",-29.9625,-51.6289
"430537",33,2014,0,0,0,0,0,"Charrua",-27.9493,-52.015
"430540",46,2014,0,0,0,0,0,"Chiapetta",-27.923,-53.9419
"430543",58,2014,0,0,0,0,0,"Chuí",-33.6866,-53.4594
"430544",67,2014,0,0,0,0,0,"Chuvisca",-30.7504,-51.9737
"430545",174,2014,0,0,1,1,0,"Cidreira",-30.1604,-50.2337
"430550",47,2014,0,0,0,0,0,"Ciríaco",-28.3419,-51.8741
"430558",22,2014,0,0,0,0,0,"Colinas",-29.3948,-51.8556
"430560",24,2014,0,0,0,0,0,"Colorado",-28.5258,-52.9928
"430570",37,2014,0,1,0,1,0,"Condor",-28.2075,-53.4905
"430580",115,2014,0,0,0,0,0,"Constantina",-27.732,-52.9938
"430583",9,2014,0,0,0,0,0,"Coqueiro Baixo",-29.1802,-52.0942
"430585",15,2014,0,0,0,0,0,"Coqueiros do Sul",-28.1194,-52.7842
"430587",26,2014,0,0,0,0,0,"Coronel Barros",-28.3921,-54.0686
"430590",94,2014,0,0,0,0,0,"Coronel Bicaco",-27.7197,-53.7022
"430593",8,2014,0,0,0,0,0,"Coronel Pilar",-29.2695,-51.6847
"430595",17,2014,0,0,0,0,0,"Cotiporã",-28.9891,-51.6971
"430597",32,2014,0,0,0,0,0,"Coxilha",-28.128,-52.3023
"430600",156,2014,0,0,0,0,0,"Crissiumal",-27.4999,-54.0994
"430605",95,2014,0,0,0,0,0,"Cristal",-31.0046,-52.0436
"430607",28,2014,0,0,0,0,0,"Cristal do Sul",-27.452,-53.2422
"430610",907,2014,1,2,0,1,0,"Cruz Alta",-28.645,-53.6048
"430613",16,2014,0,0,0,0,0,"Cruzaltense",-27.6672,-52.6522
"430620",103,2014,0,0,0,0,0,"Cruzeiro do Sul",-29.5148,-51.9928
"430630",37,2014,0,0,0,0,0,"David Canabarro",-28.3849,-51.8482
"430632",19,2014,0,0,0,0,0,"Derrubadas",-27.2642,-53.8645
"430635",22,2014,0,1,0,0,0,"Dezesseis de Novembro",-28.219,-55.0617
"430637",34,2014,0,0,0,0,0,"Dilermando de Aguiar",-29.7054,-54.2122
"430640",363,2014,0,1,0,0,0,"Dois Irmãos",-29.5836,-51.0898
"430642",27,2014,0,0,0,0,0,"Dois Irmãos das Missões",-27.6621,-53.5304
"430645",26,2014,0,0,0,0,0,"Dois Lajeados",-28.983,-51.8396
"430650",163,2014,0,0,0,0,0,"Dom Feliciano",-30.7004,-52.1026
"430655",19,2014,0,1,0,0,0,"Dom Pedro de Alcântara",-29.3639,-49.853
"430660",466,2014,0,2,0,2,0,"Dom Pedrito",-30.9756,-54.6694
"430670",33,2014,0,0,0,0,0,"Dona Francisca",-29.6195,-53.3617
"430673",42,2014,0,0,1,0,0,"Doutor Maurício Cardoso",-27.5103,-54.3577
"430675",15,2014,0,0,0,0,0,"Doutor Ricardo",-29.084,-51.9972
"430676",593,2014,1,1,0,0,0,"Eldorado do Sul",-30.0847,-51.6187
"430680",274,2014,0,2,0,0,0,"Encantado",-29.2351,-51.8703
"430690",268,2014,1,0,0,0,0,"Encruzilhada do Sul",-30.543,-52.5204
"430692",21,2014,0,0,0,0,0,"Engenho Velho",-27.706,-52.9145
"430693",100,2014,0,1,0,1,0,"Entre-Ijuís",-28.3686,-54.2686
"430695",40,2014,0,0,0,0,0,"Entre Rios do Sul",-27.5298,-52.7347
"430697",55,2014,0,0,0,0,0,"Erebango",-27.8544,-52.3005
"430700",1353,2014,0,2,0,0,0,"Erechim",-27.6364,-52.2697
"430705",40,2014,0,0,0,0,0,"Ernestina",-28.4977,-52.5836
"430710",71,2014,0,0,0,0,0,"Herval",-32.024,-53.3944
"430720",63,2014,0,0,0,0,0,"Erval Grande",-27.3926,-52.574
"430730",79,2014,0,2,0,0,0,"Erval Seco",-27.5443,-53.5005
"430740",42,2014,0,0,0,0,0,"Esmeralda",-28.0518,-51.1933
"430745",40,2014,0,0,0,0,0,"Esperança do Sul",-27.3603,-53.9891
"430750",186,2014,0,0,0,0,0,"Espumoso",-28.7286,-52.8461
"430755",67,2014,0,0,0,0,0,"Estação",-27.9135,-52.2635
"430760",644,2014,1,1,1,0,0,"Estância Velha",-29.6535,-51.1843
"430770",1071,2014,1,3,0,2,0,"Esteio",-29.852,-51.1841
"430780",420,2014,1,3,0,0,0,"Estrela",-29.5002,-51.9495
"430781",33,2014,0,0,0,0,0,"Estrela Velha",-29.1713,-53.1639
"430783",26,2014,0,0,0,0,0,"Eugênio de Castro",-28.5315,-54.1506
"430786",24,2014,0,0,0,0,0,"Fagundes Varela",-28.8794,-51.7014
"430790",906,2014,1,4,0,2,0,"Farroupilha",-29.2227,-51.3419
"430800",52,2014,0,0,0,0,0,"Faxinal do Soturno",-29.5788,-53.4484
"430805",28,2014,0,0,0,1,0,"Faxinalzinho",-27.4238,-52.6789
"430807",63,2014,0,0,0,0,0,"Fazenda Vilanova",-29.5885,-51.8217
"430810",159,2014,0,0,0,0,0,"Feliz",-29.4527,-51.3032
"430820",372,2014,0,2,0,0,0,"Flores da Cunha",-29.0261,-51.1875
"430825",7,2014,0,0,0,0,0,"Floriano Peixoto",-27.8614,-52.0838
"430830",124,2014,0,1,0,0,0,"Fontoura Xavier",-28.9817,-52.3445
"430840",56,2014,0,0,0,0,0,"Formigueiro",-30.0035,-53.4959
"430843",17,2014,0,0,0,0,0,"Forquetinha",-29.3828,-52.0981
"430845",55,2014,0,0,0,0,0,"Fortaleza dos Valos",-28.7986,-53.2249
"430850",408,2014,0,0,0,0,0,"Frederico Westphalen",-27.3586,-53.3958
"430860",366,2014,1,2,0,0,0,"Garibaldi",-29.259,-51.5352
"430865",28,2014,0,0,0,0,0,"Garruchos",-28.1944,-55.6383
"430870",50,2014,0,0,0,0,0,"Gaurama",-27.5856,-52.0915
"430880",86,2014,0,0,0,0,0,"General Câmara",-29.9032,-51.7612
"430885",22,2014,0,0,0,0,0,"Gentil",-28.4316,-52.0337
"430890",187,2014,0,1,0,0,0,"Getúlio Vargas",-27.8911,-52.2294
"430900",193,2014,1,0,0,0,0,"Giruá",-28.0297,-54.3517
"430905",76,2014,0,1,0,0,0,"Glorinha",-29.8798,-50.7734
"430910",536,2014,0,1,0,0,0,"Gramado",-29.3734,-50.8762
"430912",28,2014,0,0,0,0,0,"Gramado dos Loureiros",-27.4429,-52.9149
"430915",34,2014,0,0,0,0,0,"Gramado Xavier",-29.2706,-52.5795
"430920",3588,2014,3,10,1,3,0,"Gravataí",-29.9413,-50.9869
"430925",18,2014,0,0,0,0,0,"Guabiju",-28.5421,-51.6948
"430930",1317,2014,1,5,0,5,0,"Guaíba",-30.1086,-51.3233
"430940",307,2014,0,0,0,0,0,"Guaporé",-28.8399,-51.8895
"430950",80,2014,0,0,0,0,0,"Guarani das Missões",-28.1491,-54.5629
"430955",43,2014,0,0,0,0,0,"Harmonia",-29.5456,-51.4185
"430957",35,2014,0,0,0,0,0,"Herveiras",-29.4552,-52.6553
"430960",221,2014,0,0,0,2,0,"Horizontina",-27.6282,-54.3053
"430965",78,2014,0,0,0,0,0,"Hulha Negra",-31.4067,-53.8667
"430970",38,2014,0,0,0,0,0,"Humaitá",-27.5691,-53.9695
"430975",39,2014,0,0,0,0,0,"Ibarama",-29.4203,-53.1295
"430980",37,2014,0,0,0,0,0,"Ibiaçá",-28.0566,-51.8599
"430990",73,2014,0,0,0,0,0,"Ibiraiaras",-28.3741,-51.6377
"430995",34,2014,0,1,0,0,0,"Ibirapuitã",-28.6247,-52.5158
"431000",257,2014,0,0,0,0,0,"Ibirubá",-28.6302,-53.0961
"431010",470,2014,1,0,0,0,0,"Igrejinha",-29.5693,-50.7919
"431020",1107,2014,1,4,1,1,0,"Ijuí",-28.388,-53.92
"431030",34,2014,0,0,0,0,0,"Ilópolis",-28.9282,-52.1258
"431033",283,2014,0,0,0,0,0,"Imbé",-29.9753,-50.1281
"431036",20,2014,0,0,0,0,0,"Imigrante",-29.3508,-51.7748
"431040",78,2014,0,0,0,0,0,"Independência",-27.8354,-54.1886
"431041",35,2014,0,0,0,0,0,"Inhacorá",-27.8752,-54.015
"431043",50,2014,1,0,0,0,0,"Ipê",-28.8171,-51.2859
"431046",17,2014,0,0,0,0,0,"Ipiranga do Sul",-27.9404,-52.4271
"431050",121,2014,0,0,0,0,0,"Iraí",-27.1951,-53.2543
"431053",70,2014,0,0,0,0,0,"Itaara",-29.6013,-53.7725
"431055",29,2014,0,0,0,0,0,"Itacurubi",-28.7913,-55.2447
"431057",16,2014,0,0,0,0,0,"Itapuca",-28.7768,-52.1693
"431060",530,2014,0,1,0,0,0,"Itaqui",-29.1311,-56.5515
"431065",30,2014,0,0,0,0,0,"Itati",-29.4974,-50.1016
"431070",38,2014,0,0,0,0,0,"Itatiba do Sul",-27.3846,-52.4538
"431075",13,2014,0,0,0,0,0,"Ivorá",-29.5232,-53.5842
"431080",278,2014,1,1,0,0,0,"Ivoti",-29.5995,-51.1533
"431085",41,2014,0,0,0,0,0,"Jaboticaba",-27.6347,-53.2762
"431087",22,2014,0,0,0,0,0,"Jacuizinho",-29.0401,-53.0657
"431090",33,2014,0,0,0,0,0,"Jacutinga",-27.7291,-52.5372
"431100",349,2014,0,2,0,0,0,"Jaguarão",-32.5604,-53.377
"431110",83,2014,0,0,0,0,1,"Jaguari",-29.4936,-54.703
"431112",50,2014,0,0,0,0,0,"Jaquirana",-28.8811,-50.3637
"431113",30,2014,0,0,0,0,0,"Jari",-29.2922,-54.2237
"431115",87,2014,0,1,0,1,0,"Jóia",-28.6435,-54.1141
"431120",250,2014,0,2,0,0,0,"Júlio de Castilhos",-29.2299,-53.6772
"431123",31,2014,1,0,0,0,0,"Lagoa Bonita do Sul",-29.4939,-53.017
"431125",74,2014,0,0,0,0,0,"Lagoão",-29.2348,-52.7997
"431127",12,2014,0,0,0,0,0,"Lagoa dos Três Cantos",-28.5676,-52.8618
"431130",347,2014,0,0,0,0,0,"Lagoa Vermelha",-28.2093,-51.5248
"431140",1119,2014,0,2,0,1,0,"Lajeado",-29.4591,-51.9644
"431142",25,2014,0,0,0,0,0,"Lajeado do Bugre",-27.6913,-53.1818
"431150",69,2014,0,2,0,0,0,"Lavras do Sul",-30.8071,-53.8931
"431160",68,2014,1,1,0,0,0,"Liberato Salzano",-27.601,-53.0753
"431162",92,2014,0,0,0,0,0,"Lindolfo Collor",-29.5859,-51.2141
"431164",8,2014,0,0,0,0,0,"Linha Nova",-29.4679,-51.2003
"431170",55,2014,0,0,0,0,0,"Machadinho",-27.5667,-51.6668
"431171",37,2014,0,0,0,0,0,"Maçambará",-29.1445,-56.0674
"431173",19,2014,0,0,0,0,0,"Mampituba",-29.2136,-49.9311
"431175",65,2014,0,0,0,0,0,"Manoel Viana",-29.5859,-55.4841
"431177",88,2014,0,0,0,0,0,"Maquiné",-29.6798,-50.2079
"431179",12,2014,0,0,0,0,0,"Maratá",-29.5457,-51.5573
"431180",527,2014,1,0,1,0,0,"Marau",-28.4498,-52.1986
"431190",48,2014,0,0,0,0,0,"Marcelino Ramos",-27.4676,-51.9095
"431198",29,2014,0,0,0,0,0,"Mariana Pimentel",-30.353,-51.5803
"431200",18,2014,0,0,0,0,0,"Mariano Moro",-27.3568,-52.1467
"431205",46,2014,0,0,0,0,0,"Marques de Souza",-29.3311,-52.0973
"431210",44,2014,0,1,0,0,0,"Mata",-29.5649,-54.4641
"431213",35,2014,0,0,0,0,0,"Mato Castelhano",-28.28,-52.1932
"431215",56,2014,0,0,0,0,0,"Mato Leitão",-29.5285,-52.1278
"431217",22,2014,0,0,0,0,0,"Mato Queimado",-28.252,-54.6159
"431220",36,2014,0,0,0,0,0,"Maximiliano de Almeida",-27.6325,-51.802
"431225",114,2014,0,1,0,0,0,"Minas do Leão",-30.1346,-52.0423
"431230",56,2014,0,0,0,0,0,"Miraguaí",-27.497,-53.6891
"431235",13,2014,0,0,0,0,0,"Montauri",-28.6462,-52.0767
"431237",34,2014,0,0,0,0,0,"Monte Alegre dos Campos",-28.6805,-50.7834
"431238",17,2014,0,0,0,0,0,"Monte Belo do Sul",-29.1607,-51.6333
"431240",910,2014,0,4,0,0,0,"Montenegro",-29.6824,-51.4679
"431242",35,2014,0,0,0,0,0,"Mormaço",-28.6968,-52.6999
"431244",23,2014,0,0,0,0,0,"Morrinhos do Sul",-29.3578,-49.9328
"431245",52,2014,0,0,0,0,0,"Morro Redondo",-31.5887,-52.6261
"431247",77,2014,0,1,0,0,0,"Morro Reuter",-29.5379,-51.0811
"431250",122,2014,0,0,0,0,0,"Mostardas",-31.1054,-50.9167
"431260",49,2014,0,0,0,0,0,"Muçum",-29.163,-51.8714
"431261",39,2014,0,0,0,0,0,"Muitos Capões",-28.3132,-51.1836
"431262",22,2014,0,0,0,0,0,"Muliterno",-28.3253,-51.7697
"431265",222,2014,0,0,0,0,0,"Não-Me-Toque",-28.4548,-52.8182
"431267",18,2014,0,0,0,0,0,"Nicolau Vergueiro",-28.5298,-52.4676
"431270",174,2014,0,0,0,0,0,"Nonoai",-27.3689,-52.7756
"431275",39,2014,0,0,0,0,0,"Nova Alvorada",-28.6822,-52.1631
"431280",54,2014,0,0,0,0,0,"Nova Araçá",-28.6537,-51.7458
"431290",85,2014,0,1,0,0,0,"Nova Bassano",-28.7291,-51.7072
"431295",21,2014,0,1,0,0,0,"Nova Boa Vista",-27.9926,-52.9784
"431300",36,2014,0,1,0,0,0,"Nova Bréscia",-29.2182,-52.0319
"431301",27,2014,0,0,0,0,0,"Nova Candelária",-27.6137,-54.1074
"431303",53,2014,0,0,0,0,0,"Nova Esperança do Sul",-29.4066,-54.8293
"431306",240,2014,0,0,0,0,0,"Nova Hartz",-29.5808,-50.9051
"431308",15,2014,0,0,0,0,0,"Nova Pádua",-29.0275,-51.3098
"431310",69,2014,0,1,0,0,0,"Nova Palma",-29.471,-53.4689
"431320",245,2014,0,0,0,0,0,"Nova Petrópolis",-29.3741,-51.1136
"431330",323,2014,0,0,0,0,0,"Nova Prata",-28.7799,-51.6113
"431333",18,2014,0,0,0,0,0,"Nova Ramada",-28.0667,-53.6992
"431335",28,2014,0,0,0,0,0,"Nova Roma do Sul",-28.9882,-51.4095
"431337",381,2014,1,0,0,0,0,"Nova Santa Rita",-29.8525,-51.2837
"431339",42,2014,0,0,0,0,0,"Novo Cabrais",-29.7338,-52.9489
"431340",3206,2014,4,8,1,3,0,"Novo Hamburgo",-29.6875,-51.1328
"431342",21,2014,0,0,0,0,0,"Novo Machado",-27.5765,-54.5036
"431344",24,2014,0,0,0,0,0,"Novo Tiradentes",-27.5649,-53.1837
"431346",20,2014,0,0,0,0,0,"Novo Xingu",-27.749,-53.0639
"431349",53,2014,0,0,0,0,0,"Novo Barreiro",-27.9077,-53.1103
"431350",593,2014,1,3,0,0,0,"Osório",-29.8881,-50.2667
"431360",32,2014,0,0,0,0,0,"Paim Filho",-27.7075,-51.763
"431365",135,2014,0,0,0,0,0,"Palmares do Sul",-30.2535,-50.5103
"431370",487,2014,0,3,0,0,0,"Palmeira das Missões",-27.9007,-53.3134
"431380",93,2014,0,0,0,0,0,"Palmitinho",-27.3596,-53.558
"431390",582,2014,1,1,0,1,0,"Panambi",-28.2833,-53.5023
"431395",101,2014,0,0,0,0,0,"Pantano Grande",-30.1902,-52.3729
"431400",67,2014,0,0,0,0,0,"Paraí",-28.5964,-51.7896
"431402",58,2014,0,0,0,0,0,"Paraíso do Sul",-29.6717,-53.144
"431403",48,2014,0,0,0,0,0,"Pareci Novo",-29.6365,-51.3974
"431405",794,2014,0,5,0,0,0,"Parobé",-29.6243,-50.8312
"431406",44,2014,0,0,0,0,0,"Passa Sete",-29.4577,-52.9599
"431407",44,2014,0,0,0,0,0,"Passo do Sobrado",-29.748,-52.2748
"431410",2919,2014,2,8,2,3,1,"Passo Fundo",-28.2576,-52.4091
"431413",14,2014,0,0,0,0,0,"Paulo Bento",-27.7051,-52.4169
"431415",81,2014,0,0,0,0,0,"Paverama",-29.5486,-51.7339
"431417",10,2014,0,0,0,0,0,"Pedras Altas",-31.7365,-53.5814
"431420",95,2014,0,0,1,0,0,"Pedro Osório",-31.8642,-52.8184
"431430",30,2014,0,0,0,0,0,"Pejuçara",-28.4283,-53.6579
"431440",4353,2014,4,4,2,2,0,"Pelotas",-31.7649,-52.3371
"431442",56,2014,0,0,0,0,0,"Picada Café",-29.4464,-51.1367
"431445",28,2014,0,0,0,0,0,"Pinhal",-27.508,-53.2082
"431446",24,2014,0,0,0,0,0,"Pinhal da Serra",-27.8751,-51.1673
"431447",41,2014,0,1,0,0,0,"Pinhal Grande",-29.345,-53.3206
"431449",44,2014,0,0,0,0,0,"Pinheirinho do Vale",-27.2109,-53.608
"431450",109,2014,0,1,0,0,0,"Pinheiro Machado",-31.5794,-53.3798
"431454",23,2014,0,0,0,0,0,"Pinto Bandeira",-29.0975,-51.4503
"431455",22,2014,0,0,0,0,0,"Pirapó",-28.0439,-55.2001
"431460",184,2014,0,1,0,0,0,"Piratini",-31.4473,-53.0973
"431470",130,2014,0,1,0,0,0,"Planalto",-27.3297,-53.0575
"431475",22,2014,0,0,0,0,0,"Poço das Antas",-29.4481,-51.6719
"431477",35,2014,0,0,0,0,0,"Pontão",-28.0585,-52.6791
"431478",11,2014,0,0,0,0,0,"Ponte Preta",-27.6587,-52.4848
"431480",430,2014,1,2,1,0,0,"Portão",-29.7015,-51.2429
"431490",19189,2014,42,48,12,11,2,"Porto Alegre",-30.0318,-51.2065
"431500",37,2014,0,1,0,0,0,"Porto Lucena",-27.8569,-55.01
"431505",18,2014,1,0,0,0,0,"Porto Mauá",-27.5796,-54.6657
"431507",11,2014,0,0,0,0,0,"Porto Vera Cruz",-27.7405,-54.8994
"431510",141,2014,1,0,0,0,0,"Porto Xavier",-27.9082,-55.1379
"431513",14,2014,0,0,0,0,0,"Pouso Novo",-29.1738,-52.2136
"431514",28,2014,0,0,0,0,0,"Presidente Lucena",-29.5175,-51.1798
"431515",45,2014,0,0,0,0,0,"Progresso",-29.2441,-52.3197
"431517",12,2014,0,0,0,0,0,"Protásio Alves",-28.7572,-51.4757
"431520",34,2014,0,0,0,0,0,"Putinga",-29.0045,-52.1569
"431530",306,2014,0,2,0,0,0,"Quaraí",-30.384,-56.4483
"431531",21,2014,0,0,0,0,0,"Quatro Irmãos",-27.8257,-52.4424
"431532",19,2014,0,1,0,0,0,"Quevedos",-29.3504,-54.0789
"431535",38,2014,0,0,0,1,0,"Quinze de Novembro",-28.7466,-53.1011
"431540",212,2014,0,0,0,0,0,"Redentora",-27.664,-53.6407
"431545",12,2014,0,0,1,0,0,"Relvado",-29.1164,-52.0778
"431550",165,2014,0,0,0,0,0,"Restinga Sêca",-29.8188,-53.3807
"431555",28,2014,0,0,0,0,0,"Rio dos Índios",-27.2973,-52.8417
"431560",2960,2014,3,9,0,1,0,"Rio Grande",-32.0349,-52.1071
"431570",409,2014,0,0,0,1,0,"Rio Pardo",-29.988,-52.3711
"431575",43,2014,0,0,0,0,0,"Riozinho",-29.639,-50.4488
"431580",104,2014,0,0,0,0,0,"Roca Sales",-29.2884,-51.8658
"431590",73,2014,0,0,0,0,0,"Rodeio Bonito",-27.4742,-53.1706
"431595",18,2014,1,0,0,0,0,"Rolador",-28.2566,-54.8186
"431600",276,2014,1,2,0,0,0,"Rolante",-29.6462,-50.5819
"431610",104,2014,0,0,0,0,0,"Ronda Alta",-27.7758,-52.8056
"431620",60,2014,0,0,1,1,0,"Rondinha",-27.8315,-52.9081
"431630",56,2014,0,0,0,0,0,"Roque Gonzales",-28.1297,-55.0266
"431640",400,2014,0,0,0,1,0,"Rosário do Sul",-30.2515,-54.9221
"431642",27,2014,0,0,0,0,0,"Sagrada Família",-27.7085,-53.1351
"431643",27,2014,0,0,0,0,0,"Saldanha Marinho",-28.3941,-53.097
"431645",149,2014,1,0,0,0,0,"Salto do Jacuí",-29.0951,-53.2133
"431647",19,2014,0,0,0,0,0,"Salvador das Missões",-28.1233,-54.8373
"431650",67,2014,0,0,0,0,0,"Salvador do Sul",-29.4386,-51.5077
"431660",164,2014,0,1,0,0,0,"Sananduva",-27.947,-51.8079
"431670",116,2014,0,0,0,0,0,"Santa Bárbara do Sul",-28.3653,-53.251
"431673",21,2014,0,0,0,0,0,"Santa Cecília do Sul",-28.1609,-51.9279
"431675",55,2014,0,0,0,0,0,"Santa Clara do Sul",-29.4747,-52.0843
"431680",1632,2014,7,2,1,0,0,"Santa Cruz do Sul",-29.722,-52.4343
"431690",3406,2014,0,14,0,2,0,"Santa Maria",-29.6868,-53.8149
"431695",84,2014,0,0,0,0,0,"Santa Maria do Herval",-29.4902,-50.9919
"431697",25,2014,0,0,0,0,0,"Santa Margarida do Sul",-30.3393,-54.0817
"431700",68,2014,0,0,0,0,0,"Santana da Boa Vista",-30.8697,-53.11
"431710",1126,2014,0,1,0,0,0,"Sant'Ana do Livramento",-30.8773,-55.5392
"431720",973,2014,2,1,0,1,1,"Santa Rosa",-27.8702,-54.4796
"431725",8,2014,0,0,0,0,0,"Santa Tereza",-29.1655,-51.7351
"431730",399,2014,0,0,0,0,0,"Santa Vitória do Palmar",-33.525,-53.3717
"431740",551,2014,1,2,0,0,0,"Santiago",-29.1897,-54.8666
"431750",1019,2014,1,2,1,1,0,"Santo Ângelo",-28.3001,-54.2668
"431755",12,2014,0,0,0,0,0,"Santo Antônio do Palma",-28.4956,-52.0267
"431760",449,2014,1,1,0,1,0,"Santo Antônio da Patrulha",-29.8268,-50.5175
"431770",103,2014,0,0,0,0,0,"Santo Antônio das Missões",-28.514,-55.2251
"431775",15,2014,0,0,0,0,0,"Santo Antônio do Planalto",-28.403,-52.6992
"431780",198,2014,0,0,0,0,0,"Santo Augusto",-27.8526,-53.7776
"431790",161,2014,0,0,0,0,0,"Santo Cristo",-27.8263,-54.662
"431795",28,2014,0,0,0,0,0,"Santo Expedito do Sul",-27.9074,-51.6434
"431800",735,2014,0,2,0,3,0,"São Borja",-28.6578,-56.0036
"431805",23,2014,0,0,0,0,0,"São Domingos do Sul",-28.5312,-51.886
"431810",215,2014,0,0,0,0,0,"São Francisco de Assis",-29.5547,-55.1253
"431820",261,2014,0,0,1,0,0,"São Francisco de Paula",-29.4404,-50.5828
"431830",765,2014,0,2,0,0,0,"São Gabriel",-30.3337,-54.3217
"431840",288,2014,0,1,0,0,0,"São Jerônimo",-29.9716,-51.7251
"431842",42,2014,1,0,0,0,0,"São João da Urtiga",-27.8195,-51.8257
"431843",31,2014,0,0,0,0,0,"São João do Polêsine",-29.6194,-53.4439
"431844",26,2014,0,0,0,0,0,"São Jorge",-28.4984,-51.7064
"431845",22,2014,0,0,0,0,0,"São José das Missões",-27.7789,-53.1226
"431846",22,2014,0,0,0,0,0,"São José do Herval",-29.052,-52.295
"431848",41,2014,0,0,0,0,0,"São José do Hortêncio",-29.528,-51.245
"431849",24,2014,0,0,0,0,0,"São José do Inhacorá",-27.7251,-54.1275
"431850",290,2014,0,0,0,0,0,"São José do Norte",-32.0151,-52.0331
"431860",71,2014,0,0,0,0,0,"São José do Ouro",-27.7707,-51.5966
"431861",18,2014,0,0,0,0,0,"São José do Sul",-29.5448,-51.4821
"431862",42,2014,0,0,0,0,0,"São José dos Ausentes",-28.7476,-50.0677
"431870",3063,2014,2,3,0,3,0,"São Leopoldo",-29.7545,-51.1498
"431880",483,2014,0,1,0,0,0,"São Lourenço do Sul",-31.3564,-51.9715
"431890",416,2014,0,0,0,0,0,"São Luiz Gonzaga",-28.412,-54.9559
"431900",238,2014,0,0,0,0,0,"São Marcos",-28.9677,-51.0696
"431910",46,2014,0,0,0,0,0,"São Martinho",-27.7112,-53.9699
"431912",31,2014,0,0,0,0,0,"São Martinho da Serra",-29.5397,-53.859
"431915",89,2014,0,0,0,0,0,"São Miguel das Missões",-28.556,-54.5559
"431920",47,2014,0,0,0,0,0,"São Nicolau",-28.1834,-55.2654
"431930",47,2014,0,0,0,0,0,"São Paulo das Missões",-28.0195,-54.9404
"431935",38,2014,0,0,1,0,0,"São Pedro da Serra",-29.4193,-51.5134
"431936",24,2014,0,0,0,0,0,"São Pedro das Missões",-27.7706,-53.2513
"431937",34,2014,0,1,0,0,0,"São Pedro do Butiá",-28.1243,-54.8926
"431940",153,2014,0,0,0,0,0,"São Pedro do Sul",-29.6202,-54.1855
"431950",353,2014,0,1,0,0,0,"São Sebastião do Caí",-29.5885,-51.3749
"431960",243,2014,0,0,1,1,0,"São Sepé",-30.1643,-53.5603
"431970",38,2014,0,1,0,0,0,"São Valentim",-27.5583,-52.5237
"431971",20,2014,0,1,0,0,0,"São Valentim do Sul",-29.0451,-51.7684
"431973",30,2014,0,0,0,0,0,"São Valério do Sul",-27.7906,-53.9368
"431975",21,2014,0,0,0,0,0,"São Vendelino",-29.3729,-51.3675
"431980",91,2014,0,0,0,0,0,"São Vicente do Sul",-29.6882,-54.6826
"431990",1199,2014,1,0,0,1,0,"Sapiranga",-29.6349,-51.0064
"432000",2012,2014,2,1,0,0,0,"Sapucaia do Sul",-29.8276,-51.145
"432010",277,2014,0,1,0,0,0,"Sarandi",-27.942,-52.9231
"432020",166,2014,1,0,0,0,0,"Seberi",-27.4829,-53.4026
"432023",31,2014,0,0,0,0,0,"Sede Nova",-27.6367,-53.9493
"432026",58,2014,0,0,0,0,0,"Segredo",-29.3523,-52.9767
"432030",56,2014,0,0,0,0,0,"Selbach",-28.6294,-52.9498
"432032",37,2014,0,0,0,0,0,"Senador Salgado Filho",-28.025,-54.5507
"432035",54,2014,0,0,0,0,0,"Sentinela do Sul",-30.6107,-51.5862
"432040",186,2014,0,0,0,0,0,"Serafina Corrêa",-28.7126,-51.9352
"432045",13,2014,0,0,0,0,0,"Sério",-29.3904,-52.2685
"432050",47,2014,0,0,0,0,0,"Sertão",-27.9798,-52.2588
"432055",56,2014,0,0,0,0,0,"Sertão Santana",-30.4562,-51.6017
"432057",19,2014,0,0,0,0,0,"Sete de Setembro",-28.1362,-54.4637
"432060",27,2014,0,0,0,0,0,"Severiano de Almeida",-27.4362,-52.1217
"432065",20,2014,0,0,0,0,0,"Silveira Martins",-29.6467,-53.591
"432067",95,2014,0,0,0,0,0,"Sinimbu",-29.5357,-52.5304
"432070",191,2014,0,0,0,0,0,"Sobradinho",-29.4194,-53.0326
"432080",387,2014,0,0,0,0,0,"Soledade",-28.8306,-52.5131
"432085",45,2014,0,0,0,0,0,"Tabaí",-29.643,-51.6823
"432090",287,2014,0,1,0,0,0,"Tapejara",-28.0652,-52.0097
"432100",124,2014,0,0,0,0,0,"Tapera",-28.6277,-52.8613
"432110",183,2014,1,0,0,0,0,"Tapes",-30.6683,-51.3991
"432120",723,2014,0,0,0,2,0,"Taquara",-29.6505,-50.7753
"432130",357,2014,1,0,0,0,0,"Taquari",-29.7943,-51.8653
"432132",30,2014,0,0,0,0,0,"Taquaruçu do Sul",-27.4005,-53.4702
"432135",36,2014,0,0,0,0,0,"Tavares",-31.2843,-51.088
"432140",200,2014,0,0,0,0,0,"Tenente Portela",-27.3711,-53.7585
"432143",96,2014,0,0,0,0,0,"Terra de Areia",-29.5782,-50.0644
"432145",396,2014,0,5,1,0,0,"Teutônia",-29.4482,-51.8044
"432146",35,2014,0,0,0,0,0,"Tio Hugo",-28.5712,-52.5955
"432147",51,2014,0,0,0,0,0,"Tiradentes do Sul",-27.4022,-54.0814
"432149",23,2014,0,0,0,0,0,"Toropi",-29.4782,-54.2244
"432150",514,2014,1,1,0,1,0,"Torres",-29.3334,-49.7333
"432160",819,2014,0,3,0,0,0,"Tramandaí",-29.9841,-50.1322
"432162",15,2014,0,0,0,0,0,"Travesseiro",-29.2977,-52.0532
"432163",12,2014,0,0,0,0,0,"Três Arroios",-27.5003,-52.1448
"432166",123,2014,0,0,0,0,0,"Três Cachoeiras",-29.4487,-49.9275
"432170",326,2014,1,2,0,0,0,"Três Coroas",-29.5137,-50.7739
"432180",290,2014,1,0,0,0,0,"Três de Maio",-27.78,-54.2357
"432183",23,2014,0,0,0,0,0,"Três Forquilhas",-29.5384,-50.0708
"432185",57,2014,0,0,0,0,0,"Três Palmeiras",-27.6139,-52.8437
"432190",313,2014,0,0,0,0,0,"Três Passos",-27.4555,-53.9296
"432195",92,2014,0,1,0,0,0,"Trindade do Sul",-27.5239,-52.8956
"432200",333,2014,0,1,0,2,0,"Triunfo",-29.9291,-51.7075
"432210",52,2014,0,0,0,0,0,"Tucunduva",-27.6573,-54.4439
"432215",40,2014,0,0,0,0,0,"Tunas",-29.1039,-52.9538
"432218",18,2014,0,0,0,0,0,"Tupanci do Sul",-27.9241,-51.5383
"432220",297,2014,0,0,0,1,0,"Tupanciretã",-29.0858,-53.8445
"432225",66,2014,0,0,0,0,0,"Tupandi",-29.4772,-51.4174
"432230",79,2014,0,0,0,0,0,"Tuparendi",-27.7598,-54.4814
"432232",44,2014,0,0,0,0,0,"Turuçu",-31.4173,-52.1706
"432234",18,2014,0,0,0,0,0,"Ubiretama",-28.0404,-54.686
"432235",4,2014,0,0,0,0,0,"União da Serra",-28.7833,-52.0238
"432237",28,2014,0,0,0,0,0,"Unistalda",-29.04,-55.1517
"432240",1851,2014,3,2,0,1,0,"Uruguaiana",-29.7614,-57.0853
"432250",973,2014,1,0,0,0,0,"Vacaria",-28.5079,-50.9418
"432252",35,2014,0,0,0,0,0,"Vale Verde",-29.7864,-52.1857
"432253",107,2014,0,0,0,0,0,"Vale do Sol",-29.5967,-52.6839
"432254",62,2014,0,0,0,1,0,"Vale Real",-29.3919,-51.2559
"432255",21,2014,0,1,1,0,0,"Vanini",-28.4758,-51.8447
"432260",816,2014,0,1,1,2,0,"Venâncio Aires",-29.6143,-52.1932
"432270",278,2014,2,2,0,0,0,"Vera Cruz",-29.7184,-52.5152
"432280",275,2014,0,0,1,1,0,"Veranópolis",-28.9312,-51.5516
"432285",11,2014,0,0,1,0,0,"Vespasiano Corrêa",-29.0655,-51.8625
"432290",48,2014,0,0,0,0,0,"Viadutos",-27.5716,-52.0211
"432300",3435,2014,6,7,0,1,0,"Viamão",-30.0819,-51.0194
"432310",57,2014,0,0,0,0,0,"Vicente Dutra",-27.1607,-53.4022
"432320",31,2014,0,0,0,0,0,"Victor Graeff",-28.5632,-52.7495
"432330",33,2014,0,0,0,0,0,"Vila Flores",-28.8598,-51.5504
"432335",20,2014,0,0,0,0,0,"Vila Lângaro",-28.1062,-52.1438
"432340",34,2014,0,0,0,0,0,"Vila Maria",-28.5359,-52.1486
"432345",22,2014,0,0,0,0,0,"Vila Nova do Sul",-30.3461,-53.876
"432350",29,2014,0,0,0,0,0,"Vista Alegre",-27.3686,-53.4919
"432360",14,2014,0,0,0,0,0,"Vista Alegre do Prata",-28.8052,-51.7947
"432370",25,2014,0,0,0,0,0,"Vista Gaúcha",-27.2902,-53.6974
"432375",20,2014,0,0,0,0,0,"Vitória das Missões",-28.3516,-54.504
"432377",29,2014,0,0,0,0,0,"Westfália",-29.4263,-51.7645
"432380",223,2014,0,0,0,0,0,"Xangri-lá",-29.8065,-50.0519
"430003",55,2015,0,0,0,0,0,"Aceguá",-31.8665,-54.1615
"430005",36,2015,0,0,0,1,0,"Água Santa",-28.1672,-52.031
"430010",161,2015,0,0,0,0,0,"Agudo",-29.6447,-53.2515
"430020",68,2015,0,0,0,0,0,"Ajuricaba",-28.2342,-53.7757
"430030",48,2015,0,0,0,0,0,"Alecrim",-27.6579,-54.7649
"430040",954,2015,1,2,0,3,0,"Alegrete",-29.7902,-55.7949
"430045",31,2015,0,0,0,0,0,"Alegria",-27.8345,-54.0557
"430047",24,2015,0,0,0,0,0,"Almirante Tamandaré do Sul",-28.1149,-52.9142
"430050",71,2015,0,0,0,0,0,"Alpestre",-27.2502,-53.0341
"430055",18,2015,0,0,0,0,0,"Alto Alegre",-28.7769,-52.9893
"430057",32,2015,0,1,0,0,0,"Alto Feliz",-29.3919,-51.3123
"430060",3505,2015,5,10,3,1,0,"Alvorada",-29.9914,-51.0809
"430063",57,2015,0,1,0,0,0,"Amaral Ferrador",-30.8756,-52.2509
"430064",94,2015,0,0,0,0,0,"Ametista do Sul",-27.3607,-53.183
"430066",14,2015,0,0,0,0,0,"André da Rocha",-28.6283,-51.5797
"430070",60,2015,0,0,0,0,0,"Anta Gorda",-28.9698,-52.0102
"430080",149,2015,0,0,0,0,0,"Antônio Prado",-28.8565,-51.2883
"430085",45,2015,0,0,0,0,0,"Arambaré",-30.9092,-51.5046
"430087",93,2015,0,2,0,1,0,"Araricá",-29.6168,-50.9291
"430090",60,2015,0,0,0,0,0,"Aratiba",-27.3978,-52.2975
"430100",228,2015,0,0,0,0,0,"Arroio do Meio",-29.4014,-51.9557
"430105",127,2015,0,1,0,0,0,"Arroio do Sal",-29.5439,-49.8895
"430107",28,2015,0,0,0,0,0,"Arroio do Padre",-31.4389,-52.4246
"430110",183,2015,0,0,0,2,0,"Arroio dos Ratos",-30.0875,-51.7275
"430120",153,2015,1,0,0,1,0,"Arroio do Tigre",-29.3348,-53.0966
"430130",232,2015,0,1,0,0,0,"Arroio Grande",-32.2327,-53.0862
"430140",112,2015,0,0,0,1,0,"Arvorezinha",-28.8737,-52.1781
"430150",76,2015,1,1,0,0,0,"Augusto Pestana",-28.5172,-53.9883
"430155",28,2015,0,0,0,0,0,"Áurea",-27.6936,-52.0505
"430160",1615,2015,0,6,0,1,0,"Bagé",-31.3297,-54.0999
"430163",146,2015,0,0,0,0,0,"Balneário Pinhal",-30.2419,-50.2337
"430165",63,2015,0,0,0,0,0,"Barão",-29.3725,-51.4949
"430170",73,2015,0,1,0,0,0,"Barão de Cotegipe",-27.6208,-52.3798
"430175",50,2015,0,0,0,0,0,"Barão do Triunfo",-30.3891,-51.7384
"430180",65,2015,0,0,0,0,0,"Barracão",-27.6739,-51.4585
"430185",48,2015,0,0,0,0,0,"Barra do Guarita",-27.1927,-53.7109
"430187",34,2015,0,0,0,0,0,"Barra do Quaraí",-30.2029,-57.5497
"430190",162,2015,0,0,0,0,0,"Barra do Ribeiro",-30.2939,-51.3014
"430192",11,2015,0,0,0,0,0,"Barra do Rio Azul",-27.4069,-52.4084
"430195",30,2015,0,0,0,0,0,"Barra Funda",-27.9205,-53.0391
"430200",130,2015,0,0,0,0,0,"Barros Cassal",-29.0947,-52.5836
"430205",35,2015,0,0,0,0,0,"Benjamin Constant do Sul",-27.5086,-52.5995
"430210",1700,2015,6,5,0,3,0,"Bento Gonçalves",-29.1662,-51.5165
"430215",34,2015,0,0,0,0,0,"Boa Vista das Missões",-27.6671,-53.3102
"430220",73,2015,0,0,0,0,0,"Boa Vista do Buricá",-27.6693,-54.1082
"430222",13,2015,0,0,0,0,0,"Boa Vista do Cadeado",-28.5791,-53.8108
"430223",30,2015,0,0,0,0,0,"Boa Vista do Incra",-28.8185,-53.391
"430225",20,2015,0,0,0,0,0,"Boa Vista do Sul",-29.3544,-51.6687
"430230",154,2015,0,0,0,0,0,"Bom Jesus",-28.6697,-50.4295
"430235",184,2015,0,2,0,0,0,"Bom Princípio",-29.4856,-51.3548
"430237",25,2015,0,0,0,0,0,"Bom Progresso",-27.5399,-53.8716
"430240",165,2015,0,0,0,0,0,"Bom Retiro do Sul",-29.6071,-51.9456
"430245",100,2015,0,2,0,0,0,"Boqueirão do Leão",-29.3046,-52.4284
"430250",57,2015,0,0,0,0,0,"Bossoroca",-28.7291,-54.9035
"430258",17,2015,0,0,0,0,0,"Bozano",-28.3659,-53.772
"430260",42,2015,0,0,0,0,0,"Braga",-27.6173,-53.7405
"430265",32,2015,0,0,0,0,0,"Brochier",-29.5501,-51.5945
"430270",274,2015,0,0,0,1,0,"Butiá",-30.1179,-51.9601
"430280",390,2015,0,3,0,0,0,"Caçapava do Sul",-30.5144,-53.4827
"430290",136,2015,0,1,0,0,0,"Cacequi",-29.8883,-54.822
"430300",1076,2015,2,5,2,2,0,"Cachoeira do Sul",-30.033,-52.8928
"430310",2010,2015,5,5,1,2,0,"Cachoeirinha",-29.9472,-51.1016
"430320",61,2015,0,0,0,0,0,"Cacique Doble",-27.767,-51.6597
"430330",46,2015,0,0,0,0,0,"Caibaté",-28.2905,-54.6454
"430340",43,2015,0,0,0,0,0,"Caiçara",-27.2791,-53.4257
"430350",928,2015,0,2,0,2,0,"Camaquã",-30.8489,-51.8043
"430355",27,2015,0,0,0,0,0,"Camargo",-28.588,-52.2003
"430360",76,2015,0,0,0,0,0,"Cambará do Sul",-29.0474,-50.1465
"430367",27,2015,0,0,0,0,0,"Campestre da Serra",-28.7926,-51.0941
"430370",59,2015,0,1,0,0,0,"Campina das Missões",-27.9888,-54.8416
"430380",64,2015,0,0,0,0,0,"Campinas do Sul",-27.7174,-52.6248
"430390",913,2015,0,5,0,2,0,"Campo Bom",-29.6747,-51.0606
"430400",67,2015,0,0,0,0,0,"Campo Novo",-27.6792,-53.8052
"430410",50,2015,0,0,0,0,0,"Campos Borges",-28.8871,-53.0008
"430420",348,2015,0,0,0,0,0,"Candelária",-29.6684,-52.7895
"430430",79,2015,0,0,0,0,0,"Cândido Godói",-27.9515,-54.7517
"430435",131,2015,0,0,0,0,0,"Candiota",-31.5516,-53.6773
"430440",664,2015,0,0,0,0,0,"Canela",-29.356,-50.8119
"430450",553,2015,0,0,0,0,0,"Canguçu",-31.396,-52.6783
"430460",5475,2015,8,10,3,3,0,"Canoas",-29.9128,-51.1857
"430461",16,2015,0,0,0,0,0,"Canudos do Vale",-29.3271,-52.2374
"430462",16,2015,0,0,0,0,0,"Capão Bonito do Sul",-28.1254,-51.3961
"430463",927,2015,0,4,0,0,0,"Capão da Canoa",-29.7642,-50.0282
"430465",37,2015,0,0,0,0,0,"Capão do Cipó",-28.9312,-54.5558
"430466",357,2015,0,0,0,0,0,"Capão do Leão",-31.7565,-52.4889
"430467",55,2015,0,0,0,0,0,"Capivari do Sul",-30.1383,-50.5152
"430468",148,2015,0,0,0,1,0,"Capela de Santana",-29.6961,-51.328
"430469",35,2015,0,0,0,0,0,"Capitão",-29.2674,-51.9853
"430470",921,2015,0,1,1,1,0,"Carazinho",-28.2958,-52.7933
"430471",47,2015,1,1,0,0,0,"Caraá",-29.7869,-50.4316
"430480",356,2015,1,0,0,1,0,"Carlos Barbosa",-29.2969,-51.5028
"430485",10,2015,0,0,0,0,0,"Carlos Gomes",-27.7167,-51.9121
"430490",77,2015,0,0,0,0,0,"Casca",-28.5605,-51.9815
"430495",26,2015,0,0,0,0,0,"Caseiros",-28.2582,-51.6861
"430500",83,2015,0,0,0,0,0,"Catuípe",-28.2554,-54.0132
"430510",6498,2015,3,7,2,3,1,"Caxias do Sul",-29.1629,-51.1792
"430511",20,2015,0,0,0,0,0,"Centenário",-27.7615,-51.9984
"430512",53,2015,0,0,0,0,0,"Cerrito",-31.8419,-52.8004
"430513",38,2015,0,1,0,0,0,"Cerro Branco",-29.657,-52.9406
"430515",28,2015,0,0,0,0,0,"Cerro Grande",-27.6106,-53.1672
"430517",104,2015,0,0,0,0,0,"Cerro Grande do Sul",-30.5905,-51.7418
"430520",140,2015,0,0,0,0,0,"Cerro Largo",-28.1463,-54.7428
"430530",73,2015,0,0,0,0,0,"Chapada",-28.0559,-53.0665
"430535",392,2015,0,0,0,0,0,"Charqueadas",-29.9625,-51.6289
"430537",29,2015,0,0,0,0,0,"Charrua",-27.9493,-52.015
"430540",56,2015,0,0,0,0,0,"Chiapetta",-27.923,-53.9419
"430543",44,2015,0,0,0,0,0,"Chuí",-33.6866,-53.4594
"430544",54,2015,0,0,0,0,0,"Chuvisca",-30.7504,-51.9737
"430545",185,2015,0,0,0,0,0,"Cidreira",-30.1604,-50.2337
"430550",34,2015,0,0,0,0,0,"Ciríaco",-28.3419,-51.8741
"430558",23,2015,0,0,0,0,0,"Colinas",-29.3948,-51.8556
"430560",25,2015,0,0,0,0,0,"Colorado",-28.5258,-52.9928
"430570",23,2015,0,0,0,0,0,"Condor",-28.2075,-53.4905
"430580",124,2015,0,2,0,0,0,"Constantina",-27.732,-52.9938
"430583",3,2015,0,0,0,0,0,"Coqueiro Baixo",-29.1802,-52.0942
"430585",23,2015,0,0,0,1,0,"Coqueiros do Sul",-28.1194,-52.7842
"430587",27,2015,0,0,0,0,0,"Coronel Barros",-28.3921,-54.0686
"430590",89,2015,0,0,0,0,0,"Coronel Bicaco",-27.7197,-53.7022
"430593",8,2015,0,0,0,0,0,"Coronel Pilar",-29.2695,-51.6847
"430595",35,2015,0,0,0,0,0,"Cotiporã",-28.9891,-51.6971
"430597",55,2015,0,0,0,0,0,"Coxilha",-28.128,-52.3023
"430600",125,2015,1,0,0,0,0,"Crissiumal",-27.4999,-54.0994
"430605",113,2015,0,1,0,0,0,"Cristal",-31.0046,-52.0436
"430607",30,2015,0,0,0,0,0,"Cristal do Sul",-27.452,-53.2422
"430610",909,2015,0,2,0,1,0,"Cruz Alta",-28.645,-53.6048
"430613",21,2015,0,1,0,0,0,"Cruzaltense",-27.6672,-52.6522
"430620",116,2015,0,0,0,0,0,"Cruzeiro do Sul",-29.5148,-51.9928
"430630",31,2015,0,0,0,0,0,"David Canabarro",-28.3849,-51.8482
"430632",39,2015,0,0,0,0,0,"Derrubadas",-27.2642,-53.8645
"430635",20,2015,0,0,0,0,0,"Dezesseis de Novembro",-28.219,-55.0617
"430637",28,2015,0,0,0,0,0,"Dilermando de Aguiar",-29.7054,-54.2122
"430640",403,2015,1,0,0,0,0,"Dois Irmãos",-29.5836,-51.0898
"430642",22,2015,0,0,0,0,0,"Dois Irmãos das Missões",-27.6621,-53.5304
"430645",25,2015,0,0,0,0,0,"Dois Lajeados",-28.983,-51.8396
"430650",172,2015,0,1,0,0,0,"Dom Feliciano",-30.7004,-52.1026
"430655",25,2015,0,0,0,0,0,"Dom Pedro de Alcântara",-29.3639,-49.853
"430660",436,2015,0,1,1,0,0,"Dom Pedrito",-30.9756,-54.6694
"430670",32,2015,0,1,0,0,0,"Dona Francisca",-29.6195,-53.3617
"430673",42,2015,1,0,0,0,0,"Doutor Maurício Cardoso",-27.5103,-54.3577
"430675",23,2015,0,0,0,0,0,"Doutor Ricardo",-29.084,-51.9972
"430676",558,2015,1,1,0,1,0,"Eldorado do Sul",-30.0847,-51.6187
"430680",267,2015,0,2,0,0,1,"Encantado",-29.2351,-51.8703
"430690",271,2015,0,0,0,0,0,"Encruzilhada do Sul",-30.543,-52.5204
"430692",17,2015,0,0,0,0,0,"Engenho Velho",-27.706,-52.9145
"430693",120,2015,0,0,0,0,0,"Entre-Ijuís",-28.3686,-54.2686
"430695",35,2015,0,0,0,0,0,"Entre Rios do Sul",-27.5298,-52.7347
"430697",44,2015,0,0,0,0,0,"Erebango",-27.8544,-52.3005
"430700",1452,2015,4,5,1,3,0,"Erechim",-27.6364,-52.2697
"430705",45,2015,0,0,0,0,0,"Ernestina",-28.4977,-52.5836
"430710",57,2015,0,0,0,0,0,"Herval",-32.024,-53.3944
"430720",45,2015,0,0,0,0,0,"Erval Grande",-27.3926,-52.574
"430730",87,2015,0,0,0,0,0,"Erval Seco",-27.5443,-53.5005
"430740",27,2015,0,0,0,0,0,"Esmeralda",-28.0518,-51.1933
"430745",41,2015,0,0,0,0,0,"Esperança do Sul",-27.3603,-53.9891
"430750",192,2015,1,0,0,0,0,"Espumoso",-28.7286,-52.8461
"430755",75,2015,0,0,0,0,0,"Estação",-27.9135,-52.2635
"430760",625,2015,2,0,1,0,0,"Estância Velha",-29.6535,-51.1843
"430770",1233,2015,1,1,0,0,1,"Esteio",-29.852,-51.1841
"430780",474,2015,1,1,0,0,0,"Estrela",-29.5002,-51.9495
"430781",54,2015,0,0,0,0,0,"Estrela Velha",-29.1713,-53.1639
"430783",26,2015,0,0,0,0,0,"Eugênio de Castro",-28.5315,-54.1506
"430786",14,2015,0,0,0,0,0,"Fagundes Varela",-28.8794,-51.7014
"430790",916,2015,0,1,1,1,0,"Farroupilha",-29.2227,-51.3419
"430800",68,2015,0,2,0,0,0,"Faxinal do Soturno",-29.5788,-53.4484
"430805",38,2015,0,0,0,0,0,"Faxinalzinho",-27.4238,-52.6789
"430807",66,2015,0,1,0,1,0,"Fazenda Vilanova",-29.5885,-51.8217
"430810",155,2015,0,0,0,0,0,"Feliz",-29.4527,-51.3032
"430820",379,2015,1,0,0,1,0,"Flores da Cunha",-29.0261,-51.1875
"430825",11,2015,0,0,0,0,0,"Floriano Peixoto",-27.8614,-52.0838
"430830",119,2015,0,0,0,1,1,"Fontoura Xavier",-28.9817,-52.3445
"430840",67,2015,0,0,0,0,0,"Formigueiro",-30.0035,-53.4959
"430843",18,2015,0,0,0,0,0,"Forquetinha",-29.3828,-52.0981
"430845",49,2015,0,0,0,0,0,"Fortaleza dos Valos",-28.7986,-53.2249
"430850",430,2015,1,3,0,0,0,"Frederico Westphalen",-27.3586,-53.3958
"430860",414,2015,0,0,0,0,0,"Garibaldi",-29.259,-51.5352
"430865",24,2015,0,0,0,0,0,"Garruchos",-28.1944,-55.6383
"430870",56,2015,0,0,0,1,0,"Gaurama",-27.5856,-52.0915
"430880",97,2015,0,0,0,0,0,"General Câmara",-29.9032,-51.7612
"430885",22,2015,0,0,0,0,0,"Gentil",-28.4316,-52.0337
"430890",190,2015,0,0,0,0,0,"Getúlio Vargas",-27.8911,-52.2294
"430900",221,2015,0,2,0,0,0,"Giruá",-28.0297,-54.3517
"430905",88,2015,0,0,0,0,0,"Glorinha",-29.8798,-50.7734
"430910",591,2015,0,0,0,1,0,"Gramado",-29.3734,-50.8762
"430912",26,2015,0,0,0,0,0,"Gramado dos Loureiros",-27.4429,-52.9149
"430915",45,2015,0,0,0,0,0,"Gramado Xavier",-29.2706,-52.5795
"430920",3734,2015,5,10,3,3,0,"Gravataí",-29.9413,-50.9869
"430925",17,2015,0,0,0,0,0,"Guabiju",-28.5421,-51.6948
"430930",1411,2015,3,2,2,2,0,"Guaíba",-30.1086,-51.3233
"430940",294,2015,0,0,0,0,0,"Guaporé",-28.8399,-51.8895
"430950",74,2015,0,0,0,0,0,"Guarani das Missões",-28.1491,-54.5629
"430955",43,2015,0,0,0,0,0,"Harmonia",-29.5456,-51.4185
"430957",31,2015,0,1,0,0,0,"Herveiras",-29.4552,-52.6553
"430960",255,2015,0,0,0,0,0,"Horizontina",-27.6282,-54.3053
"430965",83,2015,0,0,0,0,0,"Hulha Negra",-31.4067,-53.8667
"430970",49,2015,0,0,0,0,0,"Humaitá",-27.5691,-53.9695
"430975",40,2015,0,0,0,0,0,"Ibarama",-29.4203,-53.1295
"430980",49,2015,0,0,0,0,0,"Ibiaçá",-28.0566,-51.8599
"430990",75,2015,0,1,0,0,0,"Ibiraiaras",-28.3741,-51.6377
"430995",41,2015,0,0,0,0,0,"Ibirapuitã",-28.6247,-52.5158
"431000",258,2015,1,0,0,0,0,"Ibirubá",-28.6302,-53.0961
"431010",472,2015,0,1,0,0,0,"Igrejinha",-29.5693,-50.7919
"431020",1183,2015,1,4,0,4,0,"Ijuí",-28.388,-53.92
"431030",50,2015,0,0,0,0,0,"Ilópolis",-28.9282,-52.1258
"431033",301,2015,0,0,0,0,0,"Imbé",-29.9753,-50.1281
"431036",25,2015,1,0,0,0,0,"Imigrante",-29.3508,-51.7748
"431040",68,2015,0,0,0,0,0,"Independência",-27.8354,-54.1886
"431041",26,2015,0,0,0,0,0,"Inhacorá",-27.8752,-54.015
"431043",69,2015,0,0,0,0,0,"Ipê",-28.8171,-51.2859
"431046",16,2015,0,0,0,0,0,"Ipiranga do Sul",-27.9404,-52.4271
"431050",104,2015,0,0,0,0,0,"Iraí",-27.1951,-53.2543
"431053",64,2015,0,0,0,0,0,"Itaara",-29.6013,-53.7725
"431055",31,2015,0,0,0,0,0,"Itacurubi",-28.7913,-55.2447
"431057",19,2015,0,0,0,0,0,"Itapuca",-28.7768,-52.1693
"431060",574,2015,0,0,1,0,0,"Itaqui",-29.1311,-56.5515
"431065",21,2015,0,0,0,0,0,"Itati",-29.4974,-50.1016
"431070",29,2015,0,0,0,0,0,"Itatiba do Sul",-27.3846,-52.4538
"431075",14,2015,0,0,0,0,0,"Ivorá",-29.5232,-53.5842
"431080",292,2015,0,0,0,0,0,"Ivoti",-29.5995,-51.1533
"431085",49,2015,0,0,0,0,0,"Jaboticaba",-27.6347,-53.2762
"431087",24,2015,0,0,0,0,0,"Jacuizinho",-29.0401,-53.0657
"431090",24,2015,0,0,0,0,0,"Jacutinga",-27.7291,-52.5372
"431100",342,2015,1,0,0,0,0,"Jaguarão",-32.5604,-53.377
"431110",105,2015,0,0,0,0,0,"Jaguari",-29.4936,-54.703
"431112",58,2015,0,0,0,0,0,"Jaquirana",-28.8811,-50.3637
"431113",39,2015,0,0,0,0,0,"Jari",-29.2922,-54.2237
"431115",89,2015,0,0,0,1,0,"Jóia",-28.6435,-54.1141
"431120",248,2015,0,0,0,0,0,"Júlio de Castilhos",-29.2299,-53.6772
"431123",34,2015,0,0,0,0,0,"Lagoa Bonita do Sul",-29.4939,-53.017
"431125",47,2015,0,0,0,0,0,"Lagoão",-29.2348,-52.7997
"431127",21,2015,0,0,0,0,0,"Lagoa dos Três Cantos",-28.5676,-52.8618
"431130",426,2015,0,0,0,0,0,"Lagoa Vermelha",-28.2093,-51.5248
"431140",1213,2015,0,2,0,1,0,"Lajeado",-29.4591,-51.9644
"431142",29,2015,0,0,0,0,0,"Lajeado do Bugre",-27.6913,-53.1818
"431150",84,2015,0,0,0,0,0,"Lavras do Sul",-30.8071,-53.8931
"431160",49,2015,0,0,0,0,0,"Liberato Salzano",-27.601,-53.0753
"431162",83,2015,0,0,1,0,0,"Lindolfo Collor",-29.5859,-51.2141
"431164",11,2015,0,0,0,0,0,"Linha Nova",-29.4679,-51.2003
"431170",74,2015,0,1,0,0,0,"Machadinho",-27.5667,-51.6668
"431171",35,2015,0,0,0,0,0,"Maçambará",-29.1445,-56.0674
"431173",39,2015,0,0,0,0,0,"Mampituba",-29.2136,-49.9311
"431175",75,2015,0,1,0,0,0,"Manoel Viana",-29.5859,-55.4841
"431177",72,2015,0,0,0,0,0,"Maquiné",-29.6798,-50.2079
"431179",25,2015,0,0,0,0,0,"Maratá",-29.5457,-51.5573
"431180",534,2015,0,1,0,1,0,"Marau",-28.4498,-52.1986
"431190",34,2015,0,0,0,0,0,"Marcelino Ramos",-27.4676,-51.9095
"431198",39,2015,0,0,0,0,0,"Mariana Pimentel",-30.353,-51.5803
"431200",17,2015,0,0,0,0,0,"Mariano Moro",-27.3568,-52.1467
"431205",46,2015,0,0,0,0,0,"Marques de Souza",-29.3311,-52.0973
"431210",41,2015,0,1,0,1,0,"Mata",-29.5649,-54.4641
"431213",28,2015,0,0,0,0,0,"Mato Castelhano",-28.28,-52.1932
"431215",54,2015,1,0,0,0,0,"Mato Leitão",-29.5285,-52.1278
"431217",23,2015,0,0,0,0,0,"Mato Queimado",-28.252,-54.6159
"431220",49,2015,0,0,0,0,0,"Maximiliano de Almeida",-27.6325,-51.802
"431225",112,2015,0,0,0,1,0,"Minas do Leão",-30.1346,-52.0423
"431230",61,2015,0,0,0,0,0,"Miraguaí",-27.497,-53.6891
"431235",16,2015,0,0,0,0,0,"Montauri",-28.6462,-52.0767
"431237",39,2015,1,0,0,1,0,"Monte Alegre dos Campos",-28.6805,-50.7834
"431238",21,2015,0,0,0,0,0,"Monte Belo do Sul",-29.1607,-51.6333
"431240",975,2015,1,3,0,0,0,"Montenegro",-29.6824,-51.4679
"431242",35,2015,0,0,0,0,0,"Mormaço",-28.6968,-52.6999
"431244",20,2015,0,0,0,0,0,"Morrinhos do Sul",-29.3578,-49.9328
"431245",62,2015,0,0,0,0,0,"Morro Redondo",-31.5887,-52.6261
"431247",59,2015,0,0,0,0,0,"Morro Reuter",-29.5379,-51.0811
"431250",135,2015,0,0,0,0,0,"Mostardas",-31.1054,-50.9167
"431260",47,2015,0,1,0,0,0,"Muçum",-29.163,-51.8714
"431261",34,2015,0,0,0,0,0,"Muitos Capões",-28.3132,-51.1836
"431262",23,2015,0,0,0,0,0,"Muliterno",-28.3253,-51.7697
"431265",256,2015,0,0,0,0,0,"Não-Me-Toque",-28.4548,-52.8182
"431267",25,2015,0,0,0,0,0,"Nicolau Vergueiro",-28.5298,-52.4676
"431270",190,2015,0,0,0,0,0,"Nonoai",-27.3689,-52.7756
"431275",41,2015,0,0,0,0,0,"Nova Alvorada",-28.6822,-52.1631
"431280",77,2015,0,0,0,0,0,"Nova Araçá",-28.6537,-51.7458
"431290",88,2015,1,0,0,0,0,"Nova Bassano",-28.7291,-51.7072
"431295",16,2015,0,0,0,0,0,"Nova Boa Vista",-27.9926,-52.9784
"431300",32,2015,0,0,0,0,0,"Nova Bréscia",-29.2182,-52.0319
"431301",27,2015,0,0,0,0,0,"Nova Candelária",-27.6137,-54.1074
"431303",58,2015,0,0,0,1,0,"Nova Esperança do Sul",-29.4066,-54.8293
"431306",257,2015,0,0,0,0,0,"Nova Hartz",-29.5808,-50.9051
"431308",17,2015,0,0,0,0,0,"Nova Pádua",-29.0275,-51.3098
"431310",61,2015,0,0,0,0,0,"Nova Palma",-29.471,-53.4689
"431320",280,2015,0,0,0,0,0,"Nova Petrópolis",-29.3741,-51.1136
"431330",328,2015,0,1,0,0,0,"Nova Prata",-28.7799,-51.6113
"431333",25,2015,0,1,0,0,0,"Nova Ramada",-28.0667,-53.6992
"431335",28,2015,0,0,0,0,0,"Nova Roma do Sul",-28.9882,-51.4095
"431337",426,2015,0,1,0,0,0,"Nova Santa Rita",-29.8525,-51.2837
"431339",29,2015,0,0,0,0,0,"Novo Cabrais",-29.7338,-52.9489
"431340",3505,2015,4,4,2,3,1,"Novo Hamburgo",-29.6875,-51.1328
"431342",20,2015,0,0,0,0,0,"Novo Machado",-27.5765,-54.5036
"431344",22,2015,0,0,0,0,0,"Novo Tiradentes",-27.5649,-53.1837
"431346",23,2015,0,0,0,0,0,"Novo Xingu",-27.749,-53.0639
"431349",44,2015,0,0,0,0,0,"Novo Barreiro",-27.9077,-53.1103
"431350",639,2015,2,3,1,0,0,"Osório",-29.8881,-50.2667
"431360",27,2015,0,0,0,0,0,"Paim Filho",-27.7075,-51.763
"431365",122,2015,0,1,0,1,0,"Palmares do Sul",-30.2535,-50.5103
"431370",525,2015,0,2,1,0,0,"Palmeira das Missões",-27.9007,-53.3134
"431380",103,2015,0,0,0,0,0,"Palmitinho",-27.3596,-53.558
"431390",601,2015,0,2,0,0,0,"Panambi",-28.2833,-53.5023
"431395",110,2015,0,0,0,0,0,"Pantano Grande",-30.1902,-52.3729
"431400",72,2015,0,0,0,0,0,"Paraí",-28.5964,-51.7896
"431402",71,2015,0,0,0,0,0,"Paraíso do Sul",-29.6717,-53.144
"431403",48,2015,0,0,0,0,0,"Pareci Novo",-29.6365,-51.3974
"431405",778,2015,0,2,1,1,1,"Parobé",-29.6243,-50.8312
"431406",37,2015,0,0,0,0,0,"Passa Sete",-29.4577,-52.9599
"431407",54,2015,0,0,0,0,0,"Passo do Sobrado",-29.748,-52.2748
"431410",2925,2015,0,6,1,1,0,"Passo Fundo",-28.2576,-52.4091
"431413",16,2015,0,0,0,0,0,"Paulo Bento",-27.7051,-52.4169
"431415",93,2015,0,2,0,0,0,"Paverama",-29.5486,-51.7339
"431417",25,2015,0,1,0,0,0,"Pedras Altas",-31.7365,-53.5814
"431420",91,2015,0,0,0,0,0,"Pedro Osório",-31.8642,-52.8184
"431430",36,2015,0,0,0,0,0,"Pejuçara",-28.4283,-53.6579
"431440",4428,2015,4,3,1,2,1,"Pelotas",-31.7649,-52.3371
"431442",48,2015,0,1,0,0,0,"Picada Café",-29.4464,-51.1367
"431445",35,2015,0,0,0,0,0,"Pinhal",-27.508,-53.2082
"431446",23,2015,0,0,0,0,0,"Pinhal da Serra",-27.8751,-51.1673
"431447",42,2015,0,0,0,0,0,"Pinhal Grande",-29.345,-53.3206
"431449",43,2015,0,0,0,0,0,"Pinheirinho do Vale",-27.2109,-53.608
"431450",107,2015,0,1,0,0,0,"Pinheiro Machado",-31.5794,-53.3798
"431454",19,2015,0,0,0,0,0,"Pinto Bandeira",-29.0975,-51.4503
"431455",17,2015,0,0,0,0,0,"Pirapó",-28.0439,-55.2001
"431460",178,2015,0,0,0,0,0,"Piratini",-31.4473,-53.0973
"431470",127,2015,0,0,0,0,0,"Planalto",-27.3297,-53.0575
"431475",20,2015,0,0,0,0,0,"Poço das Antas",-29.4481,-51.6719
"431477",49,2015,0,0,0,0,0,"Pontão",-28.0585,-52.6791
"431478",16,2015,0,0,0,0,0,"Ponte Preta",-27.6587,-52.4848
"431480",441,2015,0,1,0,0,0,"Portão",-29.7015,-51.2429
"431490",19724,2015,49,51,7,13,2,"Porto Alegre",-30.0318,-51.2065
"431500",36,2015,0,0,0,0,0,"Porto Lucena",-27.8569,-55.01
"431505",20,2015,0,0,0,0,0,"Porto Mauá",-27.5796,-54.6657
"431507",14,2015,0,0,0,0,0,"Porto Vera Cruz",-27.7405,-54.8994
"431510",142,2015,0,0,0,0,0,"Porto Xavier",-27.9082,-55.1379
"431513",21,2015,0,0,0,0,0,"Pouso Novo",-29.1738,-52.2136
"431514",24,2015,0,0,0,0,0,"Presidente Lucena",-29.5175,-51.1798
"431515",52,2015,0,0,0,0,0,"Progresso",-29.2441,-52.3197
"431517",26,2015,0,0,0,0,0,"Protásio Alves",-28.7572,-51.4757
"431520",28,2015,0,0,0,0,0,"Putinga",-29.0045,-52.1569
"431530",266,2015,0,1,0,0,0,"Quaraí",-30.384,-56.4483
"431531",20,2015,0,0,0,0,0,"Quatro Irmãos",-27.8257,-52.4424
"431532",26,2015,0,0,0,0,0,"Quevedos",-29.3504,-54.0789
"431535",42,2015,0,2,0,0,0,"Quinze de Novembro",-28.7466,-53.1011
"431540",204,2015,0,0,0,0,0,"Redentora",-27.664,-53.6407
"431545",13,2015,0,0,0,0,0,"Relvado",-29.1164,-52.0778
"431550",144,2015,0,1,0,0,0,"Restinga Sêca",-29.8188,-53.3807
"431555",23,2015,0,0,1,0,0,"Rio dos Índios",-27.2973,-52.8417
"431560",3060,2015,2,8,2,2,0,"Rio Grande",-32.0349,-52.1071
"431570",425,2015,0,0,0,1,0,"Rio Pardo",-29.988,-52.3711
"431575",46,2015,0,0,0,0,0,"Riozinho",-29.639,-50.4488
"431580",92,2015,0,1,0,0,0,"Roca Sales",-29.2884,-51.8658
"431590",77,2015,0,0,0,0,0,"Rodeio Bonito",-27.4742,-53.1706
"431595",18,2015,0,0,0,0,0,"Rolador",-28.2566,-54.8186
"431600",248,2015,0,0,0,0,0,"Rolante",-29.6462,-50.5819
"431610",113,2015,0,0,0,0,0,"Ronda Alta",-27.7758,-52.8056
"431620",55,2015,0,0,0,0,0,"Rondinha",-27.8315,-52.9081
"431630",59,2015,0,0,0,0,0,"Roque Gonzales",-28.1297,-55.0266
"431640",451,2015,0,1,0,0,0,"Rosário do Sul",-30.2515,-54.9221
"431642",36,2015,0,0,0,0,0,"Sagrada Família",-27.7085,-53.1351
"431643",27,2015,0,0,0,0,0,"Saldanha Marinho",-28.3941,-53.097
"431645",120,2015,0,0,0,1,0,"Salto do Jacuí",-29.0951,-53.2133
"431647",27,2015,0,0,0,0,0,"Salvador das Missões",-28.1233,-54.8373
"431650",87,2015,1,0,0,0,0,"Salvador do Sul",-29.4386,-51.5077
"431660",165,2015,0,1,0,0,0,"Sananduva",-27.947,-51.8079
"431670",121,2015,0,0,0,0,0,"Santa Bárbara do Sul",-28.3653,-53.251
"431673",19,2015,0,0,0,0,0,"Santa Cecília do Sul",-28.1609,-51.9279
"431675",85,2015,0,0,0,1,0,"Santa Clara do Sul",-29.4747,-52.0843
"431680",1715,2015,6,2,1,7,0,"Santa Cruz do Sul",-29.722,-52.4343
"431690",3666,2015,1,13,3,2,1,"Santa Maria",-29.6868,-53.8149
"431695",52,2015,0,0,0,0,0,"Santa Maria do Herval",-29.4902,-50.9919
"431697",30,2015,0,0,0,0,0,"Santa Margarida do Sul",-30.3393,-54.0817
"431700",57,2015,0,0,0,0,0,"Santana da Boa Vista",-30.8697,-53.11
"431710",1193,2015,0,1,0,0,0,"Sant'Ana do Livramento",-30.8773,-55.5392
"431720",1013,2015,3,1,0,1,0,"Santa Rosa",-27.8702,-54.4796
"431725",8,2015,0,0,0,0,0,"Santa Tereza",-29.1655,-51.7351
"431730",442,2015,0,1,0,0,0,"Santa Vitória do Palmar",-33.525,-53.3717
"431740",560,2015,0,0,0,0,0,"Santiago",-29.1897,-54.8666
"431750",973,2015,0,1,0,0,0,"Santo Ângelo",-28.3001,-54.2668
"431755",16,2015,0,0,0,0,0,"Santo Antônio do Palma",-28.4956,-52.0267
"431760",500,2015,2,2,0,0,0,"Santo Antônio da Patrulha",-29.8268,-50.5175
"431770",97,2015,0,0,0,0,0,"Santo Antônio das Missões",-28.514,-55.2251
"431775",34,2015,0,1,0,0,0,"Santo Antônio do Planalto",-28.403,-52.6992
"431780",220,2015,0,1,0,0,0,"Santo Augusto",-27.8526,-53.7776
"431790",145,2015,0,0,0,0,0,"Santo Cristo",-27.8263,-54.662
"431795",21,2015,0,0,0,0,0,"Santo Expedito do Sul",-27.9074,-51.6434
"431800",806,2015,0,5,0,0,0,"São Borja",-28.6578,-56.0036
"431805",22,2015,0,0,0,0,0,"São Domingos do Sul",-28.5312,-51.886
"431810",196,2015,0,1,1,0,0,"São Francisco de Assis",-29.5547,-55.1253
"431820",274,2015,0,0,0,0,0,"São Francisco de Paula",-29.4404,-50.5828
"431830",812,2015,0,2,0,1,0,"São Gabriel",-30.3337,-54.3217
"431840",302,2015,1,1,0,0,0,"São Jerônimo",-29.9716,-51.7251
"431842",33,2015,0,0,0,0,0,"São João da Urtiga",-27.8195,-51.8257
"431843",20,2015,0,1,0,0,0,"São João do Polêsine",-29.6194,-53.4439
"431844",26,2015,0,0,0,0,0,"São Jorge",-28.4984,-51.7064
"431845",26,2015,0,0,0,0,0,"São José das Missões",-27.7789,-53.1226
"431846",22,2015,0,0,0,0,0,"São José do Herval",-29.052,-52.295
"431848",43,2015,0,0,0,0,0,"São José do Hortêncio",-29.528,-51.245
"431849",22,2015,0,0,0,0,0,"São José do Inhacorá",-27.7251,-54.1275
"431850",303,2015,1,0,0,0,0,"São José do Norte",-32.0151,-52.0331
"431860",85,2015,0,0,0,0,0,"São José do Ouro",-27.7707,-51.5966
"431861",22,2015,0,0,0,0,0,"São José do Sul",-29.5448,-51.4821
"431862",58,2015,0,0,0,0,0,"São José dos Ausentes",-28.7476,-50.0677
"431870",3109,2015,0,3,0,0,0,"São Leopoldo",-29.7545,-51.1498
"431880",430,2015,0,1,0,2,0,"São Lourenço do Sul",-31.3564,-51.9715
"431890",493,2015,0,3,0,0,0,"São Luiz Gonzaga",-28.412,-54.9559
"431900",260,2015,0,0,1,1,0,"São Marcos",-28.9677,-51.0696
"431910",62,2015,0,0,0,0,0,"São Martinho",-27.7112,-53.9699
"431912",29,2015,0,0,0,0,0,"São Martinho da Serra",-29.5397,-53.859
"431915",106,2015,0,0,0,0,0,"São Miguel das Missões",-28.556,-54.5559
"431920",56,2015,0,0,0,0,0,"São Nicolau",-28.1834,-55.2654
"431930",41,2015,0,0,0,0,0,"São Paulo das Missões",-28.0195,-54.9404
"431935",35,2015,0,0,0,0,0,"São Pedro da Serra",-29.4193,-51.5134
"431936",22,2015,0,0,0,0,0,"São Pedro das Missões",-27.7706,-53.2513
"431937",24,2015,0,0,0,0,0,"São Pedro do Butiá",-28.1243,-54.8926
"431940",162,2015,1,0,0,0,0,"São Pedro do Sul",-29.6202,-54.1855
"431950",354,2015,1,1,1,0,0,"São Sebastião do Caí",-29.5885,-51.3749
"431960",261,2015,0,0,0,0,0,"São Sepé",-30.1643,-53.5603
"431970",42,2015,0,0,0,0,0,"São Valentim",-27.5583,-52.5237
"431971",22,2015,0,0,0,0,0,"São Valentim do Sul",-29.0451,-51.7684
"431973",32,2015,0,0,0,0,0,"São Valério do Sul",-27.7906,-53.9368
"431975",25,2015,1,0,0,0,0,"São Vendelino",-29.3729,-51.3675
"431980",101,2015,0,0,0,0,0,"São Vicente do Sul",-29.6882,-54.6826
"431990",1213,2015,1,2,0,2,0,"Sapiranga",-29.6349,-51.0064
"432000",2057,2015,5,7,0,2,0,"Sapucaia do Sul",-29.8276,-51.145
"432010",312,2015,0,1,0,0,0,"Sarandi",-27.942,-52.9231
"432020",156,2015,1,1,1,0,0,"Seberi",-27.4829,-53.4026
"432023",31,2015,0,0,0,0,0,"Sede Nova",-27.6367,-53.9493
"432026",79,2015,0,0,0,0,0,"Segredo",-29.3523,-52.9767
"432030",51,2015,0,0,0,0,0,"Selbach",-28.6294,-52.9498
"432032",28,2015,0,0,0,0,0,"Senador Salgado Filho",-28.025,-54.5507
"432035",52,2015,0,1,0,0,0,"Sentinela do Sul",-30.6107,-51.5862
"432040",208,2015,0,1,1,0,0,"Serafina Corrêa",-28.7126,-51.9352
"432045",16,2015,0,0,0,0,0,"Sério",-29.3904,-52.2685
"432050",50,2015,0,1,0,0,0,"Sertão",-27.9798,-52.2588
"432055",56,2015,0,1,0,0,0,"Sertão Santana",-30.4562,-51.6017
"432057",21,2015,0,0,0,0,0,"Sete de Setembro",-28.1362,-54.4637
"432060",35,2015,0,0,0,0,0,"Severiano de Almeida",-27.4362,-52.1217
"432065",21,2015,0,0,0,0,0,"Silveira Martins",-29.6467,-53.591
"432067",81,2015,0,0,0,0,0,"Sinimbu",-29.5357,-52.5304
"432070",206,2015,0,0,0,0,0,"Sobradinho",-29.4194,-53.0326
"432080",368,2015,0,0,1,2,0,"Soledade",-28.8306,-52.5131
"432085",56,2015,0,0,0,0,0,"Tabaí",-29.643,-51.6823
"432090",359,2015,0,1,0,0,0,"Tapejara",-28.0652,-52.0097
"432100",125,2015,0,0,0,1,0,"Tapera",-28.6277,-52.8613
"432110",182,2015,0,1,0,0,0,"Tapes",-30.6683,-51.3991
"432120",752,2015,0,1,0,0,0,"Taquara",-29.6505,-50.7753
"432130",332,2015,0,1,0,0,0,"Taquari",-29.7943,-51.8653
"432132",23,2015,0,0,0,0,0,"Taquaruçu do Sul",-27.4005,-53.4702
"432135",49,2015,0,0,0,0,0,"Tavares",-31.2843,-51.088
"432140",251,2015,0,0,0,0,0,"Tenente Portela",-27.3711,-53.7585
"432143",125,2015,0,0,0,0,0,"Terra de Areia",-29.5782,-50.0644
"432145",420,2015,0,3,0,2,1,"Teutônia",-29.4482,-51.8044
"432146",27,2015,0,0,0,0,0,"Tio Hugo",-28.5712,-52.5955
"432147",58,2015,0,0,0,0,0,"Tiradentes do Sul",-27.4022,-54.0814
"432149",18,2015,0,0,0,0,0,"Toropi",-29.4782,-54.2244
"432150",572,2015,1,2,0,1,0,"Torres",-29.3334,-49.7333
"432160",831,2015,1,1,0,0,0,"Tramandaí",-29.9841,-50.1322
"432162",16,2015,0,0,0,0,0,"Travesseiro",-29.2977,-52.0532
"432163",10,2015,0,0,0,0,0,"Três Arroios",-27.5003,-52.1448
"432166",134,2015,0,0,0,0,0,"Três Cachoeiras",-29.4487,-49.9275
"432170",328,2015,0,2,0,0,0,"Três Coroas",-29.5137,-50.7739
"432180",268,2015,0,0,0,0,0,"Três de Maio",-27.78,-54.2357
"432183",35,2015,0,0,0,0,0,"Três Forquilhas",-29.5384,-50.0708
"432185",59,2015,0,0,0,0,0,"Três Palmeiras",-27.6139,-52.8437
"432190",312,2015,0,0,0,0,0,"Três Passos",-27.4555,-53.9296
"432195",84,2015,0,0,0,0,0,"Trindade do Sul",-27.5239,-52.8956
"432200",361,2015,2,1,0,1,0,"Triunfo",-29.9291,-51.7075
"432210",51,2015,0,0,0,0,0,"Tucunduva",-27.6573,-54.4439
"432215",51,2015,0,0,0,0,0,"Tunas",-29.1039,-52.9538
"432218",7,2015,0,0,0,0,0,"Tupanci do Sul",-27.9241,-51.5383
"432220",299,2015,1,1,0,2,0,"Tupanciretã",-29.0858,-53.8445
"432225",51,2015,0,0,0,0,0,"Tupandi",-29.4772,-51.4174
"432230",66,2015,0,0,0,0,0,"Tuparendi",-27.7598,-54.4814
"432232",48,2015,0,1,0,0,0,"Turuçu",-31.4173,-52.1706
"432234",20,2015,0,0,0,0,0,"Ubiretama",-28.0404,-54.686
"432235",4,2015,0,0,0,0,0,"União da Serra",-28.7833,-52.0238
"432237",25,2015,0,0,0,1,0,"Unistalda",-29.04,-55.1517
"432240",1954,2015,1,3,0,2,0,"Uruguaiana",-29.7614,-57.0853
"432250",1075,2015,0,0,0,0,0,"Vacaria",-28.5079,-50.9418
"432252",35,2015,0,0,0,0,0,"Vale Verde",-29.7864,-52.1857
"432253",106,2015,0,0,0,1,0,"Vale do Sol",-29.5967,-52.6839
"432254",68,2015,0,1,0,0,0,"Vale Real",-29.3919,-51.2559
"432255",18,2015,0,0,0,0,0,"Vanini",-28.4758,-51.8447
"432260",815,2015,3,0,0,0,0,"Venâncio Aires",-29.6143,-52.1932
"432270",284,2015,1,2,0,0,0,"Vera Cruz",-29.7184,-52.5152
"432280",258,2015,0,1,0,1,0,"Veranópolis",-28.9312,-51.5516
"432285",11,2015,0,0,0,0,0,"Vespasiano Corrêa",-29.0655,-51.8625
"432290",36,2015,0,0,0,0,0,"Viadutos",-27.5716,-52.0211
"432300",3489,2015,0,7,2,2,0,"Viamão",-30.0819,-51.0194
"432310",64,2015,0,1,0,0,0,"Vicente Dutra",-27.1607,-53.4022
"432320",26,2015,0,0,0,0,0,"Victor Graeff",-28.5632,-52.7495
"432330",36,2015,0,0,0,0,0,"Vila Flores",-28.8598,-51.5504
"432335",22,2015,0,0,0,0,0,"Vila Lângaro",-28.1062,-52.1438
"432340",41,2015,0,0,0,0,0,"Vila Maria",-28.5359,-52.1486
"432345",27,2015,0,0,0,0,0,"Vila Nova do Sul",-30.3461,-53.876
"432350",26,2015,0,0,0,0,0,"Vista Alegre",-27.3686,-53.4919
"432360",10,2015,0,0,0,0,0,"Vista Alegre do Prata",-28.8052,-51.7947
"432370",31,2015,0,0,0,0,0,"Vista Gaúcha",-27.2902,-53.6974
"432375",39,2015,0,0,0,0,0,"Vitória das Missões",-28.3516,-54.504
"432377",33,2015,0,0,0,0,0,"Westfália",-29.4263,-51.7645
"432380",215,2015,0,0,0,0,0,"Xangri-lá",-29.8065,-50.0519
"430003",49,2016,0,0,0,0,0,"Aceguá",-31.8665,-54.1615
"430005",43,2016,0,0,0,0,0,"Água Santa",-28.1672,-52.031
"430010",165,2016,0,1,0,0,0,"Agudo",-29.6447,-53.2515
"430020",78,2016,0,0,0,0,0,"Ajuricaba",-28.2342,-53.7757
"430030",57,2016,0,0,0,0,0,"Alecrim",-27.6579,-54.7649
"430040",858,2016,0,4,0,0,0,"Alegrete",-29.7902,-55.7949
"430045",38,2016,0,1,0,0,0,"Alegria",-27.8345,-54.0557
"430047",22,2016,0,0,0,0,0,"Almirante Tamandaré do Sul",-28.1149,-52.9142
"430050",72,2016,0,0,0,0,0,"Alpestre",-27.2502,-53.0341
"430055",15,2016,0,0,0,0,0,"Alto Alegre",-28.7769,-52.9893
"430057",32,2016,1,0,0,0,0,"Alto Feliz",-29.3919,-51.3123
"430060",3330,2016,5,17,1,4,1,"Alvorada",-29.9914,-51.0809
"430063",55,2016,0,0,0,0,0,"Amaral Ferrador",-30.8756,-52.2509
"430064",69,2016,0,0,0,0,0,"Ametista do Sul",-27.3607,-53.183
"430066",11,2016,0,0,0,0,0,"André da Rocha",-28.6283,-51.5797
"430070",59,2016,0,0,0,0,0,"Anta Gorda",-28.9698,-52.0102
"430080",137,2016,0,0,0,0,0,"Antônio Prado",-28.8565,-51.2883
"430085",42,2016,0,0,0,0,0,"Arambaré",-30.9092,-51.5046
"430087",95,2016,0,0,0,0,0,"Araricá",-29.6168,-50.9291
"430090",46,2016,0,0,0,0,0,"Aratiba",-27.3978,-52.2975
"430100",257,2016,0,1,0,0,0,"Arroio do Meio",-29.4014,-51.9557
"430105",113,2016,1,1,1,0,0,"Arroio do Sal",-29.5439,-49.8895
"430107",19,2016,0,0,0,0,0,"Arroio do Padre",-31.4389,-52.4246
"430110",175,2016,1,1,0,0,0,"Arroio dos Ratos",-30.0875,-51.7275
"430120",138,2016,1,0,0,0,0,"Arroio do Tigre",-29.3348,-53.0966
"430130",219,2016,1,0,0,0,0,"Arroio Grande",-32.2327,-53.0862
"430140",117,2016,1,0,0,1,0,"Arvorezinha",-28.8737,-52.1781
"430150",71,2016,0,0,0,0,0,"Augusto Pestana",-28.5172,-53.9883
"430155",25,2016,0,1,0,0,0,"Áurea",-27.6936,-52.0505
"430160",1619,2016,0,4,0,1,0,"Bagé",-31.3297,-54.0999
"430163",143,2016,0,0,0,0,0,"Balneário Pinhal",-30.2419,-50.2337
"430165",52,2016,0,0,0,0,0,"Barão",-29.3725,-51.4949
"430170",104,2016,0,0,0,0,0,"Barão de Cotegipe",-27.6208,-52.3798
"430175",61,2016,0,0,0,0,0,"Barão do Triunfo",-30.3891,-51.7384
"430180",39,2016,0,0,0,0,0,"Barracão",-27.6739,-51.4585
"430185",44,2016,0,0,0,0,1,"Barra do Guarita",-27.1927,-53.7109
"430187",48,2016,0,0,0,0,0,"Barra do Quaraí",-30.2029,-57.5497
"430190",160,2016,0,0,0,0,0,"Barra do Ribeiro",-30.2939,-51.3014
"430192",6,2016,0,0,0,0,0,"Barra do Rio Azul",-27.4069,-52.4084
"430195",34,2016,0,0,0,0,0,"Barra Funda",-27.9205,-53.0391
"430200",99,2016,0,1,0,0,0,"Barros Cassal",-29.0947,-52.5836
"430205",40,2016,0,1,0,0,0,"Benjamin Constant do Sul",-27.5086,-52.5995
"430210",1483,2016,3,3,0,0,0,"Bento Gonçalves",-29.1662,-51.5165
"430215",24,2016,0,0,0,0,0,"Boa Vista das Missões",-27.6671,-53.3102
"430220",65,2016,0,1,0,0,0,"Boa Vista do Buricá",-27.6693,-54.1082
"430222",21,2016,0,0,0,0,0,"Boa Vista do Cadeado",-28.5791,-53.8108
"430223",16,2016,0,0,0,0,0,"Boa Vista do Incra",-28.8185,-53.391
"430225",21,2016,0,0,0,0,0,"Boa Vista do Sul",-29.3544,-51.6687
"430230",160,2016,0,1,0,0,0,"Bom Jesus",-28.6697,-50.4295
"430235",166,2016,0,0,0,0,0,"Bom Princípio",-29.4856,-51.3548
"430237",23,2016,0,0,0,0,0,"Bom Progresso",-27.5399,-53.8716
"430240",147,2016,0,0,1,1,0,"Bom Retiro do Sul",-29.6071,-51.9456
"430245",76,2016,0,0,0,0,0,"Boqueirão do Leão",-29.3046,-52.4284
"430250",61,2016,0,0,0,0,0,"Bossoroca",-28.7291,-54.9035
"430258",27,2016,0,0,0,0,0,"Bozano",-28.3659,-53.772
"430260",34,2016,0,0,1,0,0,"Braga",-27.6173,-53.7405
"430265",41,2016,0,0,0,0,0,"Brochier",-29.5501,-51.5945
"430270",269,2016,0,3,0,0,0,"Butiá",-30.1179,-51.9601
"430280",382,2016,0,1,1,0,0,"Caçapava do Sul",-30.5144,-53.4827
"430290",117,2016,0,0,0,0,0,"Cacequi",-29.8883,-54.822
"430300",989,2016,0,4,0,1,0,"Cachoeira do Sul",-30.033,-52.8928
"430310",1933,2016,1,2,0,1,0,"Cachoeirinha",-29.9472,-51.1016
"430320",46,2016,0,0,0,0,0,"Cacique Doble",-27.767,-51.6597
"430330",46,2016,0,0,0,0,0,"Caibaté",-28.2905,-54.6454
"430340",24,2016,0,0,0,0,0,"Caiçara",-27.2791,-53.4257
"430350",821,2016,0,4,0,1,0,"Camaquã",-30.8489,-51.8043
"430355",26,2016,0,0,0,0,0,"Camargo",-28.588,-52.2003
"430360",64,2016,0,0,0,0,0,"Cambará do Sul",-29.0474,-50.1465
"430367",22,2016,0,0,0,0,0,"Campestre da Serra",-28.7926,-51.0941
"430370",58,2016,0,0,0,0,0,"Campina das Missões",-27.9888,-54.8416
"430380",54,2016,0,0,0,0,0,"Campinas do Sul",-27.7174,-52.6248
"430390",851,2016,2,3,0,1,0,"Campo Bom",-29.6747,-51.0606
"430400",78,2016,0,0,0,0,0,"Campo Novo",-27.6792,-53.8052
"430410",39,2016,0,0,0,0,0,"Campos Borges",-28.8871,-53.0008
"430420",366,2016,0,0,0,0,0,"Candelária",-29.6684,-52.7895
"430430",47,2016,0,0,0,0,0,"Cândido Godói",-27.9515,-54.7517
"430435",130,2016,0,0,0,0,0,"Candiota",-31.5516,-53.6773
"430440",622,2016,1,1,0,0,0,"Canela",-29.356,-50.8119
"430450",522,2016,0,1,0,0,0,"Canguçu",-31.396,-52.6783
"430460",5205,2016,4,8,1,5,0,"Canoas",-29.9128,-51.1857
"430461",4,2016,0,0,0,0,0,"Canudos do Vale",-29.3271,-52.2374
"430462",21,2016,0,1,0,0,0,"Capão Bonito do Sul",-28.1254,-51.3961
"430463",923,2016,0,0,0,0,0,"Capão da Canoa",-29.7642,-50.0282
"430465",42,2016,0,0,0,0,0,"Capão do Cipó",-28.9312,-54.5558
"430466",341,2016,0,1,1,0,0,"Capão do Leão",-31.7565,-52.4889
"430467",47,2016,0,0,0,0,0,"Capivari do Sul",-30.1383,-50.5152
"430468",121,2016,0,0,0,0,0,"Capela de Santana",-29.6961,-51.328
"430469",49,2016,0,1,0,0,0,"Capitão",-29.2674,-51.9853
"430470",829,2016,1,1,0,1,0,"Carazinho",-28.2958,-52.7933
"430471",44,2016,0,0,0,0,0,"Caraá",-29.7869,-50.4316
"430480",342,2016,1,1,0,0,0,"Carlos Barbosa",-29.2969,-51.5028
"430485",10,2016,0,0,0,0,0,"Carlos Gomes",-27.7167,-51.9121
"430490",92,2016,0,0,0,0,0,"Casca",-28.5605,-51.9815
"430495",15,2016,0,0,0,0,0,"Caseiros",-28.2582,-51.6861
"430500",86,2016,0,0,0,1,0,"Catuípe",-28.2554,-54.0132
"430510",6076,2016,5,13,4,6,0,"Caxias do Sul",-29.1629,-51.1792
"430511",15,2016,0,0,0,0,0,"Centenário",-27.7615,-51.9984
"430512",39,2016,0,0,0,0,0,"Cerrito",-31.8419,-52.8004
"430513",23,2016,0,0,0,0,0,"Cerro Branco",-29.657,-52.9406
"430515",23,2016,0,0,0,0,0,"Cerro Grande",-27.6106,-53.1672
"430517",128,2016,0,0,0,0,0,"Cerro Grande do Sul",-30.5905,-51.7418
"430520",141,2016,0,0,0,0,0,"Cerro Largo",-28.1463,-54.7428
"430530",77,2016,0,0,0,0,0,"Chapada",-28.0559,-53.0665
"430535",379,2016,0,3,0,1,0,"Charqueadas",-29.9625,-51.6289
"430537",15,2016,0,0,0,0,0,"Charrua",-27.9493,-52.015
"430540",48,2016,0,0,0,0,0,"Chiapetta",-27.923,-53.9419
"430543",38,2016,0,0,0,0,0,"Chuí",-33.6866,-53.4594
"430544",50,2016,0,0,0,0,0,"Chuvisca",-30.7504,-51.9737
"430545",176,2016,0,1,0,0,0,"Cidreira",-30.1604,-50.2337
"430550",39,2016,0,0,0,0,0,"Ciríaco",-28.3419,-51.8741
"430558",26,2016,0,0,0,0,0,"Colinas",-29.3948,-51.8556
"430560",24,2016,0,1,0,1,0,"Colorado",-28.5258,-52.9928
"430570",83,2016,0,0,0,0,0,"Condor",-28.2075,-53.4905
"430580",113,2016,0,0,0,0,0,"Constantina",-27.732,-52.9938
"430583",7,2016,0,0,0,0,0,"Coqueiro Baixo",-29.1802,-52.0942
"430585",21,2016,0,0,0,0,0,"Coqueiros do Sul",-28.1194,-52.7842
"430587",27,2016,0,0,0,0,0,"Coronel Barros",-28.3921,-54.0686
"430590",90,2016,0,0,0,1,0,"Coronel Bicaco",-27.7197,-53.7022
"430593",5,2016,0,0,0,0,0,"Coronel Pilar",-29.2695,-51.6847
"430595",28,2016,0,0,0,0,0,"Cotiporã",-28.9891,-51.6971
"430597",46,2016,0,0,0,0,0,"Coxilha",-28.128,-52.3023
"430600",145,2016,0,0,1,0,0,"Crissiumal",-27.4999,-54.0994
"430605",91,2016,0,1,0,1,0,"Cristal",-31.0046,-52.0436
"430607",24,2016,1,0,0,0,0,"Cristal do Sul",-27.452,-53.2422
"430610",851,2016,0,3,0,0,0,"Cruz Alta",-28.645,-53.6048
"430613",13,2016,0,0,0,0,0,"Cruzaltense",-27.6672,-52.6522
"430620",143,2016,0,0,0,0,0,"Cruzeiro do Sul",-29.5148,-51.9928
"430630",50,2016,0,0,0,0,0,"David Canabarro",-28.3849,-51.8482
"430632",26,2016,0,0,0,0,0,"Derrubadas",-27.2642,-53.8645
"430635",23,2016,0,0,0,0,0,"Dezesseis de Novembro",-28.219,-55.0617
"430637",27,2016,0,0,0,0,0,"Dilermando de Aguiar",-29.7054,-54.2122
"430640",405,2016,0,1,0,0,0,"Dois Irmãos",-29.5836,-51.0898
"430642",28,2016,0,0,0,0,0,"Dois Irmãos das Missões",-27.6621,-53.5304
"430645",28,2016,0,0,0,0,0,"Dois Lajeados",-28.983,-51.8396
"430650",138,2016,0,0,0,0,0,"Dom Feliciano",-30.7004,-52.1026
"430655",21,2016,0,0,0,0,0,"Dom Pedro de Alcântara",-29.3639,-49.853
"430660",443,2016,0,0,0,1,0,"Dom Pedrito",-30.9756,-54.6694
"430670",38,2016,0,0,0,0,0,"Dona Francisca",-29.6195,-53.3617
"430673",39,2016,0,0,0,0,0,"Doutor Maurício Cardoso",-27.5103,-54.3577
"430675",14,2016,0,0,0,0,0,"Doutor Ricardo",-29.084,-51.9972
"430676",578,2016,0,0,0,0,0,"Eldorado do Sul",-30.0847,-51.6187
"430680",264,2016,0,0,0,0,0,"Encantado",-29.2351,-51.8703
"430690",296,2016,1,0,0,0,0,"Encruzilhada do Sul",-30.543,-52.5204
"430692",25,2016,0,0,0,0,0,"Engenho Velho",-27.706,-52.9145
"430693",100,2016,0,0,0,0,0,"Entre-Ijuís",-28.3686,-54.2686
"430695",30,2016,0,0,1,0,0,"Entre Rios do Sul",-27.5298,-52.7347
"430697",41,2016,0,0,0,0,0,"Erebango",-27.8544,-52.3005
"430700",1321,2016,1,8,0,1,0,"Erechim",-27.6364,-52.2697
"430705",32,2016,0,0,0,0,0,"Ernestina",-28.4977,-52.5836
"430710",68,2016,0,0,0,0,0,"Herval",-32.024,-53.3944
"430720",51,2016,1,0,0,0,0,"Erval Grande",-27.3926,-52.574
"430730",91,2016,0,0,0,0,0,"Erval Seco",-27.5443,-53.5005
"430740",33,2016,0,0,0,0,0,"Esmeralda",-28.0518,-51.1933
"430745",27,2016,0,0,0,0,0,"Esperança do Sul",-27.3603,-53.9891
"430750",185,2016,0,0,0,0,0,"Espumoso",-28.7286,-52.8461
"430755",67,2016,0,0,0,0,0,"Estação",-27.9135,-52.2635
"430760",651,2016,1,1,1,0,2,"Estância Velha",-29.6535,-51.1843
"430770",1086,2016,2,4,1,0,0,"Esteio",-29.852,-51.1841
"430780",413,2016,1,3,0,1,0,"Estrela",-29.5002,-51.9495
"430781",33,2016,0,0,0,0,0,"Estrela Velha",-29.1713,-53.1639
"430783",20,2016,0,0,0,0,0,"Eugênio de Castro",-28.5315,-54.1506
"430786",23,2016,0,0,0,0,0,"Fagundes Varela",-28.8794,-51.7014
"430790",811,2016,0,4,0,0,0,"Farroupilha",-29.2227,-51.3419
"430800",63,2016,0,0,0,0,0,"Faxinal do Soturno",-29.5788,-53.4484
"430805",15,2016,0,0,0,0,0,"Faxinalzinho",-27.4238,-52.6789
"430807",61,2016,0,0,1,0,0,"Fazenda Vilanova",-29.5885,-51.8217
"430810",151,2016,0,0,0,0,0,"Feliz",-29.4527,-51.3032
"430820",350,2016,0,0,0,1,0,"Flores da Cunha",-29.0261,-51.1875
"430825",17,2016,0,0,0,0,0,"Floriano Peixoto",-27.8614,-52.0838
"430830",97,2016,1,0,0,0,0,"Fontoura Xavier",-28.9817,-52.3445
"430840",73,2016,0,0,0,0,0,"Formigueiro",-30.0035,-53.4959
"430843",22,2016,0,0,0,0,0,"Forquetinha",-29.3828,-52.0981
"430845",49,2016,0,0,0,0,0,"Fortaleza dos Valos",-28.7986,-53.2249
"430850",397,2016,1,1,0,2,1,"Frederico Westphalen",-27.3586,-53.3958
"430860",417,2016,0,1,0,0,0,"Garibaldi",-29.259,-51.5352
"430865",18,2016,0,0,0,0,0,"Garruchos",-28.1944,-55.6383
"430870",52,2016,0,0,0,0,0,"Gaurama",-27.5856,-52.0915
"430880",82,2016,0,0,0,0,0,"General Câmara",-29.9032,-51.7612
"430885",34,2016,0,0,0,0,0,"Gentil",-28.4316,-52.0337
"430890",210,2016,1,1,0,0,0,"Getúlio Vargas",-27.8911,-52.2294
"430900",200,2016,0,0,0,1,0,"Giruá",-28.0297,-54.3517
"430905",94,2016,0,0,0,0,0,"Glorinha",-29.8798,-50.7734
"430910",553,2016,0,1,1,1,0,"Gramado",-29.3734,-50.8762
"430912",34,2016,0,0,0,0,0,"Gramado dos Loureiros",-27.4429,-52.9149
"430915",37,2016,0,1,0,0,0,"Gramado Xavier",-29.2706,-52.5795
"430920",3590,2016,7,9,0,4,0,"Gravataí",-29.9413,-50.9869
"430925",13,2016,0,0,0,0,0,"Guabiju",-28.5421,-51.6948
"430930",1364,2016,0,2,0,0,0,"Guaíba",-30.1086,-51.3233
"430940",312,2016,1,0,0,0,0,"Guaporé",-28.8399,-51.8895
"430950",89,2016,0,0,0,0,0,"Guarani das Missões",-28.1491,-54.5629
"430955",63,2016,0,0,0,0,0,"Harmonia",-29.5456,-51.4185
"430957",39,2016,1,0,0,0,0,"Herveiras",-29.4552,-52.6553
"430960",217,2016,1,0,0,1,0,"Horizontina",-27.6282,-54.3053
"430965",85,2016,0,0,0,0,0,"Hulha Negra",-31.4067,-53.8667
"430970",41,2016,0,0,0,0,0,"Humaitá",-27.5691,-53.9695
"430975",57,2016,0,0,0,0,0,"Ibarama",-29.4203,-53.1295
"430980",32,2016,0,0,0,0,0,"Ibiaçá",-28.0566,-51.8599
"430990",70,2016,0,0,0,0,0,"Ibiraiaras",-28.3741,-51.6377
"430995",33,2016,0,1,1,0,0,"Ibirapuitã",-28.6247,-52.5158
"431000",226,2016,0,1,0,0,0,"Ibirubá",-28.6302,-53.0961
"431010",487,2016,1,3,0,0,0,"Igrejinha",-29.5693,-50.7919
"431020",1210,2016,1,4,0,0,1,"Ijuí",-28.388,-53.92
"431030",46,2016,0,0,0,0,0,"Ilópolis",-28.9282,-52.1258
"431033",276,2016,0,1,0,0,0,"Imbé",-29.9753,-50.1281
"431036",16,2016,0,0,0,0,0,"Imigrante",-29.3508,-51.7748
"431040",70,2016,0,0,0,0,0,"Independência",-27.8354,-54.1886
"431041",25,2016,0,0,0,0,0,"Inhacorá",-27.8752,-54.015
"431043",58,2016,0,0,0,0,0,"Ipê",-28.8171,-51.2859
"431046",14,2016,0,0,0,0,0,"Ipiranga do Sul",-27.9404,-52.4271
"431050",95,2016,0,0,0,0,0,"Iraí",-27.1951,-53.2543
"431053",52,2016,0,0,0,0,0,"Itaara",-29.6013,-53.7725
"431055",31,2016,0,0,0,0,0,"Itacurubi",-28.7913,-55.2447
"431057",16,2016,0,0,0,0,0,"Itapuca",-28.7768,-52.1693
"431060",561,2016,0,1,0,1,0,"Itaqui",-29.1311,-56.5515
"431065",33,2016,0,0,0,0,0,"Itati",-29.4974,-50.1016
"431070",29,2016,0,1,0,0,0,"Itatiba do Sul",-27.3846,-52.4538
"431075",13,2016,0,0,0,0,0,"Ivorá",-29.5232,-53.5842
"431080",285,2016,0,1,0,0,0,"Ivoti",-29.5995,-51.1533
"431085",27,2016,0,0,0,0,0,"Jaboticaba",-27.6347,-53.2762
"431087",15,2016,0,0,0,0,0,"Jacuizinho",-29.0401,-53.0657
"431090",27,2016,0,0,0,0,0,"Jacutinga",-27.7291,-52.5372
"431100",308,2016,2,2,0,0,0,"Jaguarão",-32.5604,-53.377
"431110",71,2016,0,0,0,0,0,"Jaguari",-29.4936,-54.703
"431112",55,2016,0,0,0,0,0,"Jaquirana",-28.8811,-50.3637
"431113",29,2016,0,0,0,0,0,"Jari",-29.2922,-54.2237
"431115",91,2016,0,0,0,0,0,"Jóia",-28.6435,-54.1141
"431120",206,2016,0,0,0,0,0,"Júlio de Castilhos",-29.2299,-53.6772
"431123",23,2016,0,0,0,0,0,"Lagoa Bonita do Sul",-29.4939,-53.017
"431125",65,2016,0,0,1,0,0,"Lagoão",-29.2348,-52.7997
"431127",28,2016,0,0,0,0,0,"Lagoa dos Três Cantos",-28.5676,-52.8618
"431130",394,2016,0,1,0,0,0,"Lagoa Vermelha",-28.2093,-51.5248
"431140",1161,2016,4,6,0,2,0,"Lajeado",-29.4591,-51.9644
"431142",30,2016,0,0,0,1,0,"Lajeado do Bugre",-27.6913,-53.1818
"431150",67,2016,0,0,0,0,0,"Lavras do Sul",-30.8071,-53.8931
"431160",61,2016,0,0,0,0,0,"Liberato Salzano",-27.601,-53.0753
"431162",81,2016,0,0,0,0,0,"Lindolfo Collor",-29.5859,-51.2141
"431164",11,2016,0,0,0,0,0,"Linha Nova",-29.4679,-51.2003
"431170",60,2016,0,3,0,0,0,"Machadinho",-27.5667,-51.6668
"431171",61,2016,0,0,1,0,0,"Maçambará",-29.1445,-56.0674
"431173",34,2016,0,0,0,0,0,"Mampituba",-29.2136,-49.9311
"431175",52,2016,0,0,0,0,0,"Manoel Viana",-29.5859,-55.4841
"431177",55,2016,0,2,0,0,0,"Maquiné",-29.6798,-50.2079
"431179",23,2016,0,0,0,0,0,"Maratá",-29.5457,-51.5573
"431180",486,2016,0,4,1,0,0,"Marau",-28.4498,-52.1986
"431190",40,2016,0,0,0,0,0,"Marcelino Ramos",-27.4676,-51.9095
"431198",39,2016,1,0,1,0,0,"Mariana Pimentel",-30.353,-51.5803
"431200",11,2016,0,0,0,0,0,"Mariano Moro",-27.3568,-52.1467
"431205",37,2016,0,0,0,1,0,"Marques de Souza",-29.3311,-52.0973
"431210",37,2016,0,0,0,0,0,"Mata",-29.5649,-54.4641
"431213",36,2016,0,0,0,0,0,"Mato Castelhano",-28.28,-52.1932
"431215",34,2016,0,0,0,0,0,"Mato Leitão",-29.5285,-52.1278
"431217",22,2016,0,0,0,0,0,"Mato Queimado",-28.252,-54.6159
"431220",31,2016,0,0,0,0,0,"Maximiliano de Almeida",-27.6325,-51.802
"431225",102,2016,0,0,0,0,0,"Minas do Leão",-30.1346,-52.0423
"431230",67,2016,0,0,0,1,0,"Miraguaí",-27.497,-53.6891
"431235",11,2016,0,0,0,0,0,"Montauri",-28.6462,-52.0767
"431237",45,2016,0,0,0,0,0,"Monte Alegre dos Campos",-28.6805,-50.7834
"431238",10,2016,1,0,0,0,0,"Monte Belo do Sul",-29.1607,-51.6333
"431240",928,2016,0,2,0,0,0,"Montenegro",-29.6824,-51.4679
"431242",22,2016,0,0,0,0,0,"Mormaço",-28.6968,-52.6999
"431244",30,2016,0,0,0,0,0,"Morrinhos do Sul",-29.3578,-49.9328
"431245",58,2016,0,0,0,0,0,"Morro Redondo",-31.5887,-52.6261
"431247",58,2016,0,0,0,0,0,"Morro Reuter",-29.5379,-51.0811
"431250",137,2016,0,0,0,0,0,"Mostardas",-31.1054,-50.9167
"431260",49,2016,0,1,0,0,0,"Muçum",-29.163,-51.8714
"431261",39,2016,0,0,0,0,0,"Muitos Capões",-28.3132,-51.1836
"431262",34,2016,0,0,0,0,0,"Muliterno",-28.3253,-51.7697
"431265",239,2016,0,0,0,0,0,"Não-Me-Toque",-28.4548,-52.8182
"431267",15,2016,0,0,0,0,0,"Nicolau Vergueiro",-28.5298,-52.4676
"431270",181,2016,0,1,0,0,0,"Nonoai",-27.3689,-52.7756
"431275",34,2016,0,0,0,0,0,"Nova Alvorada",-28.6822,-52.1631
"431280",72,2016,0,0,0,0,0,"Nova Araçá",-28.6537,-51.7458
"431290",84,2016,0,1,0,0,0,"Nova Bassano",-28.7291,-51.7072
"431295",18,2016,0,0,0,1,0,"Nova Boa Vista",-27.9926,-52.9784
"431300",15,2016,0,0,0,0,0,"Nova Bréscia",-29.2182,-52.0319
"431301",30,2016,0,0,0,0,0,"Nova Candelária",-27.6137,-54.1074
"431303",61,2016,1,1,1,0,0,"Nova Esperança do Sul",-29.4066,-54.8293
"431306",267,2016,0,0,0,0,0,"Nova Hartz",-29.5808,-50.9051
"431308",13,2016,0,0,0,0,0,"Nova Pádua",-29.0275,-51.3098
"431310",64,2016,0,0,0,0,0,"Nova Palma",-29.471,-53.4689
"431320",250,2016,0,2,0,0,0,"Nova Petrópolis",-29.3741,-51.1136
"431330",348,2016,1,0,0,0,0,"Nova Prata",-28.7799,-51.6113
"431333",20,2016,0,0,0,0,0,"Nova Ramada",-28.0667,-53.6992
"431335",24,2016,0,0,0,0,0,"Nova Roma do Sul",-28.9882,-51.4095
"431337",401,2016,0,1,0,0,1,"Nova Santa Rita",-29.8525,-51.2837
"431339",32,2016,0,0,0,0,0,"Novo Cabrais",-29.7338,-52.9489
"431340",3164,2016,2,3,1,2,0,"Novo Hamburgo",-29.6875,-51.1328
"431342",21,2016,0,0,0,0,0,"Novo Machado",-27.5765,-54.5036
"431344",27,2016,0,0,0,0,0,"Novo Tiradentes",-27.5649,-53.1837
"431346",15,2016,0,0,0,0,0,"Novo Xingu",-27.749,-53.0639
"431349",38,2016,0,0,0,0,0,"Novo Barreiro",-27.9077,-53.1103
"431350",675,2016,0,0,0,0,0,"Osório",-29.8881,-50.2667
"431360",29,2016,0,0,0,0,0,"Paim Filho",-27.7075,-51.763
"431365",156,2016,1,1,0,0,0,"Palmares do Sul",-30.2535,-50.5103
"431370",483,2016,0,3,0,4,0,"Palmeira das Missões",-27.9007,-53.3134
"431380",95,2016,0,1,0,0,0,"Palmitinho",-27.3596,-53.558
"431390",622,2016,0,1,1,0,0,"Panambi",-28.2833,-53.5023
"431395",107,2016,0,0,0,0,0,"Pantano Grande",-30.1902,-52.3729
"431400",108,2016,0,1,0,0,0,"Paraí",-28.5964,-51.7896
"431402",80,2016,0,0,0,0,0,"Paraíso do Sul",-29.6717,-53.144
"431403",42,2016,0,0,0,0,0,"Pareci Novo",-29.6365,-51.3974
"431405",762,2016,1,3,1,0,0,"Parobé",-29.6243,-50.8312
"431406",28,2016,0,0,0,0,0,"Passa Sete",-29.4577,-52.9599
"431407",58,2016,0,1,0,0,0,"Passo do Sobrado",-29.748,-52.2748
"431410",2876,2016,3,9,2,8,0,"Passo Fundo",-28.2576,-52.4091
"431413",18,2016,0,0,0,0,0,"Paulo Bento",-27.7051,-52.4169
"431415",71,2016,0,0,0,0,0,"Paverama",-29.5486,-51.7339
"431417",28,2016,0,0,0,0,0,"Pedras Altas",-31.7365,-53.5814
"431420",95,2016,0,0,0,0,0,"Pedro Osório",-31.8642,-52.8184
"431430",29,2016,0,0,0,0,0,"Pejuçara",-28.4283,-53.6579
"431440",4259,2016,6,10,2,3,1,"Pelotas",-31.7649,-52.3371
"431442",48,2016,0,0,0,0,0,"Picada Café",-29.4464,-51.1367
"431445",11,2016,0,0,0,0,0,"Pinhal",-27.508,-53.2082
"431446",18,2016,0,0,0,0,0,"Pinhal da Serra",-27.8751,-51.1673
"431447",47,2016,0,1,0,0,0,"Pinhal Grande",-29.345,-53.3206
"431449",52,2016,0,0,0,0,0,"Pinheirinho do Vale",-27.2109,-53.608
"431450",113,2016,0,1,0,0,0,"Pinheiro Machado",-31.5794,-53.3798
"431454",25,2016,0,0,0,0,0,"Pinto Bandeira",-29.0975,-51.4503
"431455",17,2016,0,0,0,0,0,"Pirapó",-28.0439,-55.2001
"431460",181,2016,0,1,0,0,0,"Piratini",-31.4473,-53.0973
"431470",122,2016,0,0,0,0,0,"Planalto",-27.3297,-53.0575
"431475",22,2016,0,1,0,0,0,"Poço das Antas",-29.4481,-51.6719
"431477",43,2016,0,0,0,0,0,"Pontão",-28.0585,-52.6791
"431478",14,2016,0,0,0,0,0,"Ponte Preta",-27.6587,-52.4848
"431480",400,2016,1,2,0,1,0,"Portão",-29.7015,-51.2429
"431490",18635,2016,29,47,19,17,5,"Porto Alegre",-30.0318,-51.2065
"431500",29,2016,0,0,0,0,0,"Porto Lucena",-27.8569,-55.01
"431505",21,2016,0,0,0,0,0,"Porto Mauá",-27.5796,-54.6657
"431507",12,2016,0,0,0,0,0,"Porto Vera Cruz",-27.7405,-54.8994
"431510",115,2016,0,0,0,0,0,"Porto Xavier",-27.9082,-55.1379
"431513",15,2016,0,0,0,0,0,"Pouso Novo",-29.1738,-52.2136
"431514",36,2016,0,0,0,0,0,"Presidente Lucena",-29.5175,-51.1798
"431515",48,2016,0,1,0,0,0,"Progresso",-29.2441,-52.3197
"431517",18,2016,0,0,0,0,0,"Protásio Alves",-28.7572,-51.4757
"431520",32,2016,0,0,0,0,0,"Putinga",-29.0045,-52.1569
"431530",268,2016,0,2,1,0,0,"Quaraí",-30.384,-56.4483
"431531",10,2016,0,0,0,0,0,"Quatro Irmãos",-27.8257,-52.4424
"431532",14,2016,0,0,0,0,0,"Quevedos",-29.3504,-54.0789
"431535",46,2016,0,0,0,0,0,"Quinze de Novembro",-28.7466,-53.1011
"431540",156,2016,0,0,0,0,0,"Redentora",-27.664,-53.6407
"431545",9,2016,0,0,0,0,0,"Relvado",-29.1164,-52.0778
"431550",199,2016,0,1,1,0,0,"Restinga Sêca",-29.8188,-53.3807
"431555",33,2016,0,0,0,0,0,"Rio dos Índios",-27.2973,-52.8417
"431560",2848,2016,7,5,3,2,0,"Rio Grande",-32.0349,-52.1071
"431570",451,2016,0,0,0,0,0,"Rio Pardo",-29.988,-52.3711
"431575",39,2016,0,0,0,0,0,"Riozinho",-29.639,-50.4488
"431580",127,2016,0,0,0,1,0,"Roca Sales",-29.2884,-51.8658
"431590",76,2016,0,2,0,0,0,"Rodeio Bonito",-27.4742,-53.1706
"431595",17,2016,0,0,0,0,0,"Rolador",-28.2566,-54.8186
"431600",244,2016,0,2,0,0,0,"Rolante",-29.6462,-50.5819
"431610",97,2016,0,0,0,0,0,"Ronda Alta",-27.7758,-52.8056
"431620",44,2016,0,0,0,0,0,"Rondinha",-27.8315,-52.9081
"431630",69,2016,0,1,0,0,0,"Roque Gonzales",-28.1297,-55.0266
"431640",449,2016,0,2,0,0,0,"Rosário do Sul",-30.2515,-54.9221
"431642",23,2016,0,0,0,0,0,"Sagrada Família",-27.7085,-53.1351
"431643",33,2016,0,0,0,0,0,"Saldanha Marinho",-28.3941,-53.097
"431645",154,2016,0,0,0,0,0,"Salto do Jacuí",-29.0951,-53.2133
"431647",29,2016,0,0,0,0,0,"Salvador das Missões",-28.1233,-54.8373
"431650",89,2016,0,0,0,0,0,"Salvador do Sul",-29.4386,-51.5077
"431660",173,2016,0,0,0,0,0,"Sananduva",-27.947,-51.8079
"431670",90,2016,0,0,0,0,0,"Santa Bárbara do Sul",-28.3653,-53.251
"431673",11,2016,0,0,0,0,0,"Santa Cecília do Sul",-28.1609,-51.9279
"431675",65,2016,0,0,0,0,0,"Santa Clara do Sul",-29.4747,-52.0843
"431680",1641,2016,17,4,0,1,0,"Santa Cruz do Sul",-29.722,-52.4343
"431690",3518,2016,5,14,3,4,0,"Santa Maria",-29.6868,-53.8149
"431695",50,2016,0,0,0,0,0,"Santa Maria do Herval",-29.4902,-50.9919
"431697",23,2016,0,0,0,0,0,"Santa Margarida do Sul",-30.3393,-54.0817
"431700",53,2016,0,0,0,0,0,"Santana da Boa Vista",-30.8697,-53.11
"431710",1189,2016,0,0,0,0,0,"Sant'Ana do Livramento",-30.8773,-55.5392
"431720",998,2016,1,1,0,1,0,"Santa Rosa",-27.8702,-54.4796
"431725",12,2016,0,0,0,0,0,"Santa Tereza",-29.1655,-51.7351
"431730",402,2016,0,3,0,0,0,"Santa Vitória do Palmar",-33.525,-53.3717
"431740",627,2016,0,5,0,1,0,"Santiago",-29.1897,-54.8666
"431750",1030,2016,2,2,0,1,0,"Santo Ângelo",-28.3001,-54.2668
"431755",16,2016,0,0,0,0,0,"Santo Antônio do Palma",-28.4956,-52.0267
"431760",471,2016,0,2,2,1,0,"Santo Antônio da Patrulha",-29.8268,-50.5175
"431770",98,2016,0,0,0,0,0,"Santo Antônio das Missões",-28.514,-55.2251
"431775",14,2016,0,0,0,0,0,"Santo Antônio do Planalto",-28.403,-52.6992
"431780",196,2016,0,0,0,0,0,"Santo Augusto",-27.8526,-53.7776
"431790",128,2016,0,0,0,0,0,"Santo Cristo",-27.8263,-54.662
"431795",24,2016,0,0,0,0,0,"Santo Expedito do Sul",-27.9074,-51.6434
"431800",807,2016,0,5,1,0,0,"São Borja",-28.6578,-56.0036
"431805",22,2016,0,0,0,0,0,"São Domingos do Sul",-28.5312,-51.886
"431810",174,2016,0,1,0,1,0,"São Francisco de Assis",-29.5547,-55.1253
"431820",294,2016,0,0,0,0,0,"São Francisco de Paula",-29.4404,-50.5828
"431830",832,2016,1,2,0,0,0,"São Gabriel",-30.3337,-54.3217
"431840",264,2016,0,0,0,0,0,"São Jerônimo",-29.9716,-51.7251
"431842",41,2016,0,0,0,0,0,"São João da Urtiga",-27.8195,-51.8257
"431843",23,2016,0,0,0,0,0,"São João do Polêsine",-29.6194,-53.4439
"431844",18,2016,0,0,0,0,0,"São Jorge",-28.4984,-51.7064
"431845",22,2016,0,0,0,0,0,"São José das Missões",-27.7789,-53.1226
"431846",17,2016,0,0,0,0,0,"São José do Herval",-29.052,-52.295
"431848",35,2016,0,0,0,0,0,"São José do Hortêncio",-29.528,-51.245
"431849",19,2016,0,0,0,0,0,"São José do Inhacorá",-27.7251,-54.1275
"431850",312,2016,1,2,1,0,0,"São José do Norte",-32.0151,-52.0331
"431860",58,2016,0,0,0,0,0,"São José do Ouro",-27.7707,-51.5966
"431861",31,2016,0,0,0,0,0,"São José do Sul",-29.5448,-51.4821
"431862",54,2016,0,0,0,0,0,"São José dos Ausentes",-28.7476,-50.0677
"431870",2869,2016,2,3,0,1,0,"São Leopoldo",-29.7545,-51.1498
"431880",449,2016,0,2,0,0,0,"São Lourenço do Sul",-31.3564,-51.9715
"431890",483,2016,0,1,0,0,0,"São Luiz Gonzaga",-28.412,-54.9559
"431900",227,2016,0,0,0,0,0,"São Marcos",-28.9677,-51.0696
"431910",67,2016,1,1,0,1,0,"São Martinho",-27.7112,-53.9699
"431912",36,2016,0,0,0,0,0,"São Martinho da Serra",-29.5397,-53.859
"431915",72,2016,0,1,1,1,0,"São Miguel das Missões",-28.556,-54.5559
"431920",57,2016,0,0,0,0,0,"São Nicolau",-28.1834,-55.2654
"431930",49,2016,0,0,0,0,0,"São Paulo das Missões",-28.0195,-54.9404
"431935",42,2016,0,0,0,0,0,"São Pedro da Serra",-29.4193,-51.5134
"431936",28,2016,0,0,0,0,0,"São Pedro das Missões",-27.7706,-53.2513
"431937",20,2016,0,0,0,1,0,"São Pedro do Butiá",-28.1243,-54.8926
"431940",162,2016,0,1,0,0,0,"São Pedro do Sul",-29.6202,-54.1855
"431950",341,2016,0,0,0,0,0,"São Sebastião do Caí",-29.5885,-51.3749
"431960",218,2016,0,0,0,0,0,"São Sepé",-30.1643,-53.5603
"431970",40,2016,0,0,0,1,0,"São Valentim",-27.5583,-52.5237
"431971",18,2016,0,0,0,0,0,"São Valentim do Sul",-29.0451,-51.7684
"431973",36,2016,0,0,0,0,0,"São Valério do Sul",-27.7906,-53.9368
"431975",20,2016,0,0,0,0,0,"São Vendelino",-29.3729,-51.3675
"431980",99,2016,0,0,0,1,0,"São Vicente do Sul",-29.6882,-54.6826
"431990",1148,2016,0,2,0,0,0,"Sapiranga",-29.6349,-51.0064
"432000",1910,2016,4,6,0,6,0,"Sapucaia do Sul",-29.8276,-51.145
"432010",272,2016,1,0,0,0,0,"Sarandi",-27.942,-52.9231
"432020",150,2016,1,0,0,0,0,"Seberi",-27.4829,-53.4026
"432023",27,2016,0,0,0,0,0,"Sede Nova",-27.6367,-53.9493
"432026",84,2016,0,0,0,0,0,"Segredo",-29.3523,-52.9767
"432030",57,2016,0,0,0,0,0,"Selbach",-28.6294,-52.9498
"432032",27,2016,0,0,0,0,0,"Senador Salgado Filho",-28.025,-54.5507
"432035",51,2016,0,0,0,0,0,"Sentinela do Sul",-30.6107,-51.5862
"432040",213,2016,0,0,2,0,0,"Serafina Corrêa",-28.7126,-51.9352
"432045",19,2016,0,0,0,0,0,"Sério",-29.3904,-52.2685
"432050",54,2016,0,0,0,0,0,"Sertão",-27.9798,-52.2588
"432055",51,2016,0,0,0,0,0,"Sertão Santana",-30.4562,-51.6017
"432057",18,2016,0,0,0,0,0,"Sete de Setembro",-28.1362,-54.4637
"432060",38,2016,0,1,0,0,0,"Severiano de Almeida",-27.4362,-52.1217
"432065",27,2016,0,1,0,0,0,"Silveira Martins",-29.6467,-53.591
"432067",88,2016,0,0,0,0,0,"Sinimbu",-29.5357,-52.5304
"432070",171,2016,0,0,0,0,0,"Sobradinho",-29.4194,-53.0326
"432080",391,2016,0,0,0,0,0,"Soledade",-28.8306,-52.5131
"432085",56,2016,0,1,0,0,0,"Tabaí",-29.643,-51.6823
"432090",321,2016,0,2,0,0,0,"Tapejara",-28.0652,-52.0097
"432100",139,2016,0,0,0,0,0,"Tapera",-28.6277,-52.8613
"432110",182,2016,0,0,0,0,0,"Tapes",-30.6683,-51.3991
"432120",686,2016,0,1,0,0,0,"Taquara",-29.6505,-50.7753
"432130",322,2016,0,1,0,1,0,"Taquari",-29.7943,-51.8653
"432132",34,2016,0,0,0,0,0,"Taquaruçu do Sul",-27.4005,-53.4702
"432135",37,2016,0,0,0,0,0,"Tavares",-31.2843,-51.088
"432140",192,2016,0,1,0,1,0,"Tenente Portela",-27.3711,-53.7585
"432143",114,2016,0,1,0,0,0,"Terra de Areia",-29.5782,-50.0644
"432145",370,2016,0,2,0,1,0,"Teutônia",-29.4482,-51.8044
"432146",39,2016,0,0,0,0,0,"Tio Hugo",-28.5712,-52.5955
"432147",48,2016,0,0,0,0,0,"Tiradentes do Sul",-27.4022,-54.0814
"432149",18,2016,0,0,0,0,0,"Toropi",-29.4782,-54.2244
"432150",590,2016,2,1,0,0,0,"Torres",-29.3334,-49.7333
"432160",813,2016,1,0,1,0,0,"Tramandaí",-29.9841,-50.1322
"432162",19,2016,0,0,0,0,0,"Travesseiro",-29.2977,-52.0532
"432163",14,2016,1,0,0,0,0,"Três Arroios",-27.5003,-52.1448
"432166",127,2016,0,0,0,0,0,"Três Cachoeiras",-29.4487,-49.9275
"432170",313,2016,0,1,0,0,0,"Três Coroas",-29.5137,-50.7739
"432180",296,2016,0,0,0,0,0,"Três de Maio",-27.78,-54.2357
"432183",31,2016,0,0,0,0,0,"Três Forquilhas",-29.5384,-50.0708
"432185",52,2016,0,1,0,0,0,"Três Palmeiras",-27.6139,-52.8437
"432190",305,2016,0,0,0,1,0,"Três Passos",-27.4555,-53.9296
"432195",93,2016,0,1,0,0,0,"Trindade do Sul",-27.5239,-52.8956
"432200",350,2016,0,4,0,0,0,"Triunfo",-29.9291,-51.7075
"432210",43,2016,0,0,0,0,0,"Tucunduva",-27.6573,-54.4439
"432215",40,2016,0,0,0,0,0,"Tunas",-29.1039,-52.9538
"432218",9,2016,0,0,0,0,0,"Tupanci do Sul",-27.9241,-51.5383
"432220",266,2016,0,2,0,0,0,"Tupanciretã",-29.0858,-53.8445
"432225",65,2016,0,0,0,0,0,"Tupandi",-29.4772,-51.4174
"432230",84,2016,0,0,0,0,0,"Tuparendi",-27.7598,-54.4814
"432232",36,2016,0,0,0,0,0,"Turuçu",-31.4173,-52.1706
"432234",14,2016,0,0,0,0,0,"Ubiretama",-28.0404,-54.686
"432235",10,2016,0,0,0,0,0,"União da Serra",-28.7833,-52.0238
"432237",21,2016,0,0,0,0,0,"Unistalda",-29.04,-55.1517
"432240",1780,2016,0,0,0,1,0,"Uruguaiana",-29.7614,-57.0853
"432250",953,2016,1,1,0,0,0,"Vacaria",-28.5079,-50.9418
"432252",37,2016,0,0,0,0,0,"Vale Verde",-29.7864,-52.1857
"432253",80,2016,0,0,0,1,0,"Vale do Sol",-29.5967,-52.6839
"432254",62,2016,0,0,0,0,0,"Vale Real",-29.3919,-51.2559
"432255",22,2016,0,0,0,0,0,"Vanini",-28.4758,-51.8447
"432260",792,2016,1,0,0,0,0,"Venâncio Aires",-29.6143,-52.1932
"432270",289,2016,2,0,0,0,0,"Vera Cruz",-29.7184,-52.5152
"432280",245,2016,1,0,0,1,0,"Veranópolis",-28.9312,-51.5516
"432285",15,2016,0,0,0,0,0,"Vespasiano Corrêa",-29.0655,-51.8625
"432290",41,2016,0,0,0,0,0,"Viadutos",-27.5716,-52.0211
"432300",3363,2016,3,5,1,3,0,"Viamão",-30.0819,-51.0194
"432310",66,2016,0,0,0,0,1,"Vicente Dutra",-27.1607,-53.4022
"432320",20,2016,0,0,0,0,0,"Victor Graeff",-28.5632,-52.7495
"432330",36,2016,0,0,0,0,0,"Vila Flores",-28.8598,-51.5504
"432335",18,2016,0,0,0,0,0,"Vila Lângaro",-28.1062,-52.1438
"432340",34,2016,0,0,0,0,0,"Vila Maria",-28.5359,-52.1486
"432345",20,2016,0,0,0,0,0,"Vila Nova do Sul",-30.3461,-53.876
"432350",23,2016,0,0,0,0,0,"Vista Alegre",-27.3686,-53.4919
"432360",10,2016,0,0,0,0,0,"Vista Alegre do Prata",-28.8052,-51.7947
"432370",19,2016,0,0,0,0,0,"Vista Gaúcha",-27.2902,-53.6974
"432375",23,2016,0,0,0,0,0,"Vitória das Missões",-28.3516,-54.504
"432377",43,2016,0,0,0,0,0,"Westfália",-29.4263,-51.7645
"432380",238,2016,0,0,0,0,0,"Xangri-lá",-29.8065,-50.0519
"430003",52,2017,0,0,0,0,0,"Aceguá",-31.8665,-54.1615
"430005",45,2017,0,0,0,0,0,"Água Santa",-28.1672,-52.031
"430010",150,2017,0,0,0,0,0,"Agudo",-29.6447,-53.2515
"430020",60,2017,0,0,0,0,0,"Ajuricaba",-28.2342,-53.7757
"430030",59,2017,0,0,0,0,0,"Alecrim",-27.6579,-54.7649
"430040",888,2017,1,5,0,2,1,"Alegrete",-29.7902,-55.7949
"430045",38,2017,0,0,0,0,0,"Alegria",-27.8345,-54.0557
"430047",25,2017,0,0,0,0,0,"Almirante Tamandaré do Sul",-28.1149,-52.9142
"430050",70,2017,0,0,0,0,0,"Alpestre",-27.2502,-53.0341
"430055",13,2017,0,0,0,0,0,"Alto Alegre",-28.7769,-52.9893
"430057",26,2017,0,0,0,0,0,"Alto Feliz",-29.3919,-51.3123
"430060",3263,2017,11,8,3,4,1,"Alvorada",-29.9914,-51.0809
"430063",48,2017,0,0,0,0,0,"Amaral Ferrador",-30.8756,-52.2509
"430064",77,2017,0,0,0,0,0,"Ametista do Sul",-27.3607,-53.183
"430066",6,2017,0,0,0,0,0,"André da Rocha",-28.6283,-51.5797
"430070",56,2017,0,1,0,0,0,"Anta Gorda",-28.9698,-52.0102
"430080",125,2017,0,0,0,0,0,"Antônio Prado",-28.8565,-51.2883
"430085",41,2017,0,0,0,0,0,"Arambaré",-30.9092,-51.5046
"430087",88,2017,0,0,0,0,0,"Araricá",-29.6168,-50.9291
"430090",51,2017,0,0,0,0,0,"Aratiba",-27.3978,-52.2975
"430100",234,2017,1,1,0,0,0,"Arroio do Meio",-29.4014,-51.9557
"430105",118,2017,1,0,0,0,0,"Arroio do Sal",-29.5439,-49.8895
"430107",21,2017,0,0,0,0,0,"Arroio do Padre",-31.4389,-52.4246
"430110",169,2017,0,0,0,0,0,"Arroio dos Ratos",-30.0875,-51.7275
"430120",162,2017,0,0,0,1,1,"Arroio do Tigre",-29.3348,-53.0966
"430130",220,2017,0,0,0,0,0,"Arroio Grande",-32.2327,-53.0862
"430140",114,2017,0,0,0,0,0,"Arvorezinha",-28.8737,-52.1781
"430150",76,2017,0,0,0,0,0,"Augusto Pestana",-28.5172,-53.9883
"430155",23,2017,0,0,0,0,0,"Áurea",-27.6936,-52.0505
"430160",1644,2017,2,0,1,1,0,"Bagé",-31.3297,-54.0999
"430163",153,2017,0,0,0,0,0,"Balneário Pinhal",-30.2419,-50.2337
"430165",51,2017,0,0,0,0,0,"Barão",-29.3725,-51.4949
"430170",62,2017,0,0,0,0,0,"Barão de Cotegipe",-27.6208,-52.3798
"430175",73,2017,1,0,0,0,0,"Barão do Triunfo",-30.3891,-51.7384
"430180",46,2017,0,0,0,0,0,"Barracão",-27.6739,-51.4585
"430185",52,2017,1,0,0,0,0,"Barra do Guarita",-27.1927,-53.7109
"430187",53,2017,0,1,0,0,0,"Barra do Quaraí",-30.2029,-57.5497
"430190",163,2017,1,0,0,0,0,"Barra do Ribeiro",-30.2939,-51.3014
"430192",13,2017,0,0,0,0,0,"Barra do Rio Azul",-27.4069,-52.4084
"430195",36,2017,0,0,0,1,0,"Barra Funda",-27.9205,-53.0391
"430200",104,2017,0,1,0,0,0,"Barros Cassal",-29.0947,-52.5836
"430205",40,2017,0,0,0,0,0,"Benjamin Constant do Sul",-27.5086,-52.5995
"430210",1541,2017,4,4,0,0,0,"Bento Gonçalves",-29.1662,-51.5165
"430215",20,2017,0,0,0,0,0,"Boa Vista das Missões",-27.6671,-53.3102
"430220",87,2017,0,0,0,0,0,"Boa Vista do Buricá",-27.6693,-54.1082
"430222",24,2017,0,0,0,0,0,"Boa Vista do Cadeado",-28.5791,-53.8108
"430223",46,2017,0,0,0,1,0,"Boa Vista do Incra",-28.8185,-53.391
"430225",14,2017,0,0,0,0,0,"Boa Vista do Sul",-29.3544,-51.6687
"430230",165,2017,0,0,0,0,0,"Bom Jesus",-28.6697,-50.4295
"430235",169,2017,0,0,0,0,0,"Bom Princípio",-29.4856,-51.3548
"430237",39,2017,0,0,0,0,0,"Bom Progresso",-27.5399,-53.8716
"430240",149,2017,0,0,0,0,0,"Bom Retiro do Sul",-29.6071,-51.9456
"430245",64,2017,0,1,0,0,0,"Boqueirão do Leão",-29.3046,-52.4284
"430250",54,2017,0,0,0,0,0,"Bossoroca",-28.7291,-54.9035
"430258",22,2017,0,0,0,0,0,"Bozano",-28.3659,-53.772
"430260",46,2017,0,0,0,0,0,"Braga",-27.6173,-53.7405
"430265",50,2017,0,0,0,0,0,"Brochier",-29.5501,-51.5945
"430270",243,2017,0,1,0,0,0,"Butiá",-30.1179,-51.9601
"430280",366,2017,0,1,1,0,0,"Caçapava do Sul",-30.5144,-53.4827
"430290",98,2017,0,0,0,0,0,"Cacequi",-29.8883,-54.822
"430300",997,2017,1,3,2,0,1,"Cachoeira do Sul",-30.033,-52.8928
"430310",1894,2017,3,8,1,3,0,"Cachoeirinha",-29.9472,-51.1016
"430320",47,2017,0,0,0,0,0,"Cacique Doble",-27.767,-51.6597
"430330",67,2017,0,1,0,0,0,"Caibaté",-28.2905,-54.6454
"430340",54,2017,0,0,0,0,0,"Caiçara",-27.2791,-53.4257
"430350",786,2017,0,4,0,1,0,"Camaquã",-30.8489,-51.8043
"430355",35,2017,0,0,0,0,0,"Camargo",-28.588,-52.2003
"430360",45,2017,0,0,0,0,0,"Cambará do Sul",-29.0474,-50.1465
"430367",25,2017,0,0,0,0,0,"Campestre da Serra",-28.7926,-51.0941
"430370",49,2017,0,0,0,0,0,"Campina das Missões",-27.9888,-54.8416
"430380",53,2017,0,0,0,0,0,"Campinas do Sul",-27.7174,-52.6248
"430390",904,2017,1,0,1,0,0,"Campo Bom",-29.6747,-51.0606
"430400",85,2017,0,0,0,0,0,"Campo Novo",-27.6792,-53.8052
"430410",57,2017,0,0,0,0,0,"Campos Borges",-28.8871,-53.0008
"430420",322,2017,0,1,1,2,0,"Candelária",-29.6684,-52.7895
"430430",62,2017,0,0,0,0,0,"Cândido Godói",-27.9515,-54.7517
"430435",137,2017,0,0,0,1,0,"Candiota",-31.5516,-53.6773
"430440",648,2017,1,2,0,2,0,"Canela",-29.356,-50.8119
"430450",585,2017,2,1,0,0,0,"Canguçu",-31.396,-52.6783
"430460",4991,2017,9,4,0,1,0,"Canoas",-29.9128,-51.1857
"430461",11,2017,0,0,0,0,0,"Canudos do Vale",-29.3271,-52.2374
"430462",18,2017,0,0,0,0,0,"Capão Bonito do Sul",-28.1254,-51.3961
"430463",895,2017,0,1,0,0,0,"Capão da Canoa",-29.7642,-50.0282
"430465",28,2017,0,0,0,0,0,"Capão do Cipó",-28.9312,-54.5558
"430466",380,2017,1,2,1,1,0,"Capão do Leão",-31.7565,-52.4889
"430467",52,2017,0,0,0,0,0,"Capivari do Sul",-30.1383,-50.5152
"430468",127,2017,0,0,0,0,0,"Capela de Santana",-29.6961,-51.328
"430469",28,2017,0,0,0,0,0,"Capitão",-29.2674,-51.9853
"430470",807,2017,0,1,1,0,0,"Carazinho",-28.2958,-52.7933
"430471",54,2017,1,0,0,0,0,"Caraá",-29.7869,-50.4316
"430480",301,2017,0,0,0,0,0,"Carlos Barbosa",-29.2969,-51.5028
"430485",14,2017,0,0,0,0,0,"Carlos Gomes",-27.7167,-51.9121
"430490",117,2017,0,0,0,0,0,"Casca",-28.5605,-51.9815
"430495",37,2017,1,0,0,0,0,"Caseiros",-28.2582,-51.6861
"430500",84,2017,0,0,0,0,0,"Catuípe",-28.2554,-54.0132
"430510",5839,2017,8,7,1,4,0,"Caxias do Sul",-29.1629,-51.1792
"430511",24,2017,0,0,0,0,0,"Centenário",-27.7615,-51.9984
"430512",50,2017,0,0,0,1,0,"Cerrito",-31.8419,-52.8004
"430513",43,2017,0,0,0,0,0,"Cerro Branco",-29.657,-52.9406
"430515",33,2017,0,0,0,0,0,"Cerro Grande",-27.6106,-53.1672
"430517",127,2017,0,1,0,0,0,"Cerro Grande do Sul",-30.5905,-51.7418
"430520",150,2017,0,0,0,0,0,"Cerro Largo",-28.1463,-54.7428
"430530",68,2017,0,0,0,0,0,"Chapada",-28.0559,-53.0665
"430535",367,2017,1,1,0,1,0,"Charqueadas",-29.9625,-51.6289
"430537",29,2017,0,0,0,0,0,"Charrua",-27.9493,-52.015
"430540",59,2017,0,0,0,0,0,"Chiapetta",-27.923,-53.9419
"430543",42,2017,0,0,0,0,0,"Chuí",-33.6866,-53.4594
"430544",49,2017,0,0,0,0,0,"Chuvisca",-30.7504,-51.9737
"430545",201,2017,0,2,0,0,0,"Cidreira",-30.1604,-50.2337
"430550",45,2017,0,0,0,0,0,"Ciríaco",-28.3419,-51.8741
"430558",30,2017,0,0,0,0,0,"Colinas",-29.3948,-51.8556
"430560",31,2017,0,0,0,0,0,"Colorado",-28.5258,-52.9928
"430570",82,2017,0,0,0,0,0,"Condor",-28.2075,-53.4905
"430580",125,2017,1,0,0,0,0,"Constantina",-27.732,-52.9938
"430583",7,2017,0,0,0,0,0,"Coqueiro Baixo",-29.1802,-52.0942
"430585",27,2017,1,0,0,0,0,"Coqueiros do Sul",-28.1194,-52.7842
"430587",37,2017,0,0,0,0,0,"Coronel Barros",-28.3921,-54.0686
"430590",90,2017,0,0,0,0,0,"Coronel Bicaco",-27.7197,-53.7022
"430593",12,2017,0,0,0,0,0,"Coronel Pilar",-29.2695,-51.6847
"430595",28,2017,0,0,0,0,0,"Cotiporã",-28.9891,-51.6971
"430597",45,2017,0,0,0,0,0,"Coxilha",-28.128,-52.3023
"430600",133,2017,0,0,0,0,0,"Crissiumal",-27.4999,-54.0994
"430605",82,2017,0,0,0,0,0,"Cristal",-31.0046,-52.0436
"430607",30,2017,1,0,0,0,0,"Cristal do Sul",-27.452,-53.2422
"430610",862,2017,2,5,1,1,0,"Cruz Alta",-28.645,-53.6048
"430613",11,2017,0,0,0,0,0,"Cruzaltense",-27.6672,-52.6522
"430620",106,2017,0,1,0,0,0,"Cruzeiro do Sul",-29.5148,-51.9928
"430630",37,2017,0,0,0,0,0,"David Canabarro",-28.3849,-51.8482
"430632",37,2017,0,0,0,0,0,"Derrubadas",-27.2642,-53.8645
"430635",27,2017,0,0,0,0,0,"Dezesseis de Novembro",-28.219,-55.0617
"430637",24,2017,0,0,0,0,0,"Dilermando de Aguiar",-29.7054,-54.2122
"430640",396,2017,1,4,0,0,0,"Dois Irmãos",-29.5836,-51.0898
"430642",34,2017,0,0,0,0,0,"Dois Irmãos das Missões",-27.6621,-53.5304
"430645",23,2017,0,0,0,0,0,"Dois Lajeados",-28.983,-51.8396
"430650",150,2017,0,0,0,0,0,"Dom Feliciano",-30.7004,-52.1026
"430655",21,2017,1,0,0,0,0,"Dom Pedro de Alcântara",-29.3639,-49.853
"430660",415,2017,0,0,0,0,0,"Dom Pedrito",-30.9756,-54.6694
"430670",25,2017,0,0,0,0,0,"Dona Francisca",-29.6195,-53.3617
"430673",49,2017,0,0,0,0,0,"Doutor Maurício Cardoso",-27.5103,-54.3577
"430675",20,2017,0,0,0,0,0,"Doutor Ricardo",-29.084,-51.9972
"430676",571,2017,0,2,0,2,0,"Eldorado do Sul",-30.0847,-51.6187
